[
    {
        "barrio": "Villa Pueyrredon",
        "calle_altura": null,
        "calle_cruce": "MENDOZA",
        "calle_nombre": "DE LOS CONSTITUYENTES AV.",
        "comuna": "Comuna 12",
        "cuit": "30-64711854-9",
        "domicilio": "AV. DE LOS CONSTITUYENTES 4480 ESQ. VALLEJOS, CIUDAD AUTóNOMA DE BUENOS AIRES",
        "id": 1074,
        "lat": -34.582445816993605,
        "long": -58.49181771449121,
        "nombre": "ASPRO",
        "razon_social": "GNC LOS AMIGOS S.A.",
        "tipo_de_boca": "GNC"
    },
    {
        "barrio": "Almagro",
        "calle_altura": null,
        "calle_cruce": "SARMIENTO",
        "calle_nombre": "GALLO",
        "comuna": "Comuna 5",
        "cuit": "30-64581284-7",
        "domicilio": "SARMIENTO 3412 ESQ., CIUDAD AUTóNOMA DE BUENOS AIRES",
        "id": 1076,
        "lat": -34.606223741128304,
        "long": -58.4139586038227,
        "nombre": "ASPRO",
        "razon_social": "GAS ING SOCIEDAD ANONIMA",
        "tipo_de_boca": "GNC"
    },
    {
        "barrio": "Retiro",
        "calle_altura": null,
        "calle_cruce": "SAN MARTIN",
        "calle_nombre": "MARTINEZ ZUVIRIA, GUSTAVO,",
        "comuna": "Comuna 1",
        "cuit": "30-55025533-9",
        "domicilio": "AVDA. E. MADERO Y SAN MARTIN, RETIRO - C.A.B.A.",
        "id": 84,
        "lat": -34.591480612187,
        "long": -58.371515709209795,
        "nombre": "DAPSA",
        "razon_social": "DESTILERIA ARGENTINA DE PETROLEO S.A.",
        "tipo_de_boca": "LIQUIDOS"
    },
    {
        "barrio": "Villa Urquiza",
        "calle_altura": "4801.0",
        "calle_cruce": "GALVAN",
        "calle_nombre": "CONGRESO AV.",
        "comuna": "Comuna 12",
        "cuit": "30-50691900-9",
        "domicilio": "AV CONGRESO 4801, CAPITAL FED ZONA 5",
        "id": 114,
        "lat": -34.5678335083907,
        "long": -58.4869134027637,
        "nombre": "ESSO",
        "razon_social": "SERVICENTRO CONGRESO - 158698",
        "tipo_de_boca": "DUAL"
    },
    {
        "barrio": "Belgrano",
        "calle_altura": "3078.0",
        "calle_cruce": "MONROE",
        "calle_nombre": "BALBIN, RICARDO, DR. AV.",
        "comuna": "Comuna 13",
        "cuit": "30-50691900-9",
        "domicilio": "MONROE 3078, CAPITAL FED ZONA 5",
        "id": 115,
        "lat": -34.5622034826728,
        "long": -58.4660714844294,
        "nombre": "ESSO",
        "razon_social": "SERVICENTRO DEL TEJAR - 158625",
        "tipo_de_boca": "LIQUIDOS"
    },
    {
        "barrio": "Balvanera",
        "calle_altura": null,
        "calle_cruce": "JUJUY AV.",
        "calle_nombre": "ALSINA, ADOLFO",
        "comuna": "Comuna 3",
        "cuit": "30-50691900-9",
        "domicilio": "AV.JUJUY 164 Y ALSINA, CAPITAL FED ZONA 4",
        "id": 117,
        "lat": -34.6121409182196,
        "long": -58.4053472830924,
        "nombre": "ESSO",
        "razon_social": "CORS ESSO PETROLERA ARGENTINA SRL",
        "tipo_de_boca": "DUAL"
    },
    {
        "barrio": "Floresta",
        "calle_altura": null,
        "calle_cruce": "SEGUROLA AV.",
        "calle_nombre": "GAONA AV.",
        "comuna": "Comuna 10",
        "cuit": "20-93430342-4",
        "domicilio": "SEGUROLA 809 ESQ. GAONA, CAPITAL FED ZONA 4",
        "id": 118,
        "lat": -34.627491851768,
        "long": -58.490212971474286,
        "nombre": "ESSO",
        "razon_social": "ANTONIO RODEIRO CALVO",
        "tipo_de_boca": "LIQUIDOS"
    },
    {
        "barrio": "Villa Gral. Mitre",
        "calle_altura": null,
        "calle_cruce": "TRELLES, MANUEL R.",
        "calle_nombre": "GAONA AV.",
        "comuna": "Comuna 11",
        "cuit": "20-13076767-3",
        "domicilio": "AV. GAONA 2399 Y TRELLES, CAPITAL FEDERAL",
        "id": 119,
        "lat": -34.6142206946945,
        "long": -58.4606196283127,
        "nombre": "ESSO",
        "razon_social": "JUAN CARLOS BARGIELA",
        "tipo_de_boca": "LIQUIDOS"
    },
    {
        "barrio": "Palermo",
        "calle_altura": null,
        "calle_cruce": "OLLEROS",
        "calle_nombre": "CABILDO AV.",
        "comuna": "Comuna 14",
        "cuit": "30-50691900-9",
        "domicilio": "CABILDO 695 ESQ. OLLEROS, CAPITAL FED ZONA 4",
        "id": 120,
        "lat": -34.5703097768677,
        "long": -58.4437266012384,
        "nombre": "ESSO",
        "razon_social": "SERVICENTRO CABILDO - 158594",
        "tipo_de_boca": "LIQUIDOS"
    },
    {
        "barrio": "San Telmo",
        "calle_altura": null,
        "calle_cruce": "CHILE",
        "calle_nombre": "CHACABUCO",
        "comuna": "Comuna 1",
        "cuit": "27-03419318-0",
        "domicilio": "CHILE 702 ESQ. CHACABUCO, CAPITAL FED ZONA 1",
        "id": 122,
        "lat": -34.6162991556142,
        "long": -58.3761660822694,
        "nombre": "ESSO",
        "razon_social": "URANIA DE ROSARIO ELENA SICA",
        "tipo_de_boca": "LIQUIDOS"
    },
    {
        "barrio": "Villa Crespo",
        "calle_altura": "5793.0",
        "calle_cruce": "JUSTO, JUAN B. AV.",
        "calle_nombre": "CORRIENTES AV.",
        "comuna": "Comuna 15",
        "cuit": "30-66172354-4",
        "domicilio": "CORRIENTES 5793, CAPITAL FED ZONA 1",
        "id": 123,
        "lat": -34.5948303339949,
        "long": -58.44403879016,
        "nombre": "ESSO",
        "razon_social": "J. B. JUSTO S.A.",
        "tipo_de_boca": "LIQUIDOS"
    },
    {
        "barrio": "Villa Crespo",
        "calle_altura": null,
        "calle_cruce": "VIALE, LUIS",
        "calle_nombre": "SAN MARTIN AV.",
        "comuna": "Comuna 15",
        "cuit": "30-50691900-9",
        "domicilio": "AV. SAN MARTIN Y LUIS VIALE, CAPITAL FED ZONA 1",
        "id": 124,
        "lat": -34.6062095600886,
        "long": -58.45083015807979,
        "nombre": "ESSO",
        "razon_social": "SERVICENTRO LUIS VIALE - 158680",
        "tipo_de_boca": "LIQUIDOS"
    },
    {
        "barrio": "Caballito",
        "calle_altura": "575.0",
        "calle_cruce": "INDEPENDENCIA AV.",
        "calle_nombre": "ALBERDI, JUAN BAUTISTA AV.",
        "comuna": "Comuna 6",
        "cuit": "30-50691900-9",
        "domicilio": "AV. LA PLATA 575, CAPITAL FED ZONA 1",
        "id": 125,
        "lat": -34.6219380305265,
        "long": -58.42806431115089,
        "nombre": "ESSO",
        "razon_social": "SERVICENTRO ALBERDI - 158709",
        "tipo_de_boca": "LIQUIDOS"
    },
    {
        "barrio": "Villa Urquiza",
        "calle_altura": null,
        "calle_cruce": "TRIUNVIRATO AV.",
        "calle_nombre": "LARRALDE, CRISOLOGO AV.",
        "comuna": "Comuna 12",
        "cuit": "30-50691900-9",
        "domicilio": "AV. TRIUNVIRATO 5878 Y CRISOLOGO LARRALDE, CAPITAL FED ZONA 5",
        "id": 126,
        "lat": -34.5638353696806,
        "long": -58.4966037821581,
        "nombre": "ESSO",
        "razon_social": "SERVICENTRO PARQUE SARMIENTO - 158654",
        "tipo_de_boca": "DUAL"
    },
    {
        "barrio": "Colegiales",
        "calle_altura": "3550.0",
        "calle_cruce": "DE LOS INCAS AV.",
        "calle_nombre": "DELGADO",
        "comuna": "Comuna 13",
        "cuit": "20-13076767-3",
        "domicilio": "AVDA. LOS INCAS 3550, CAPITAL FED ZONA 5",
        "id": 127,
        "lat": -34.575092791875896,
        "long": -58.4628694420381,
        "nombre": "ESSO",
        "razon_social": "JUAN CARLOS BARGIELA",
        "tipo_de_boca": "LIQUIDOS"
    },
    {
        "barrio": "Floresta",
        "calle_altura": null,
        "calle_cruce": "GONZALEZ, JOAQUIN V.",
        "calle_nombre": "ENSENADA",
        "comuna": "Comuna 10",
        "cuit": "30-50691900-9",
        "domicilio": "AV. RIVADAVIA Y JOAQUIN V. GONZ, CAPITAL FED ZONA 7",
        "id": 128,
        "lat": -34.6328810284541,
        "long": -58.479310550670704,
        "nombre": "ESSO",
        "razon_social": "SERVICENTRO FLORESTA - 158629",
        "tipo_de_boca": "LIQUIDOS"
    },
    {
        "barrio": "Balvanera",
        "calle_altura": null,
        "calle_cruce": "RIVADAVIA AV.",
        "calle_nombre": "ANCHORENA, TOMAS MANUEL DE, DR.",
        "comuna": "Comuna 3",
        "cuit": "30-50691900-9",
        "domicilio": "AV. RIVADAVIA 3199 ESQ. ANCHORENA, CAPITAL FED ZONA 2",
        "id": 129,
        "lat": -34.610290845836204,
        "long": -58.4115175300141,
        "nombre": "ESSO",
        "razon_social": "SERVICENTRO ANCHORENA - 158623",
        "tipo_de_boca": "DUAL"
    },
    {
        "barrio": "Liniers",
        "calle_altura": null,
        "calle_cruce": "HUMAITA",
        "calle_nombre": "BOQUERON",
        "comuna": "Comuna 9",
        "cuit": "30-50691900-9",
        "domicilio": "AV. GRAL PAZ KM. 15, CAPITAL FED ZONA 7",
        "id": 130,
        "lat": -34.6465310955599,
        "long": -58.528822736973,
        "nombre": "ESSO",
        "razon_social": "SERVICENTRO GRAL PAZ CAP. - 158715",
        "tipo_de_boca": "DUAL"
    },
    {
        "barrio": "Parque Avellaneda",
        "calle_altura": "4350.0",
        "calle_cruce": "MEDINA",
        "calle_nombre": "PERON, EVA AV.",
        "comuna": "Comuna 9",
        "cuit": "30-68498803-0",
        "domicilio": "Av EVA PERON 4350, CAPITAL FEDERAL",
        "id": 131,
        "lat": -34.6531395202654,
        "long": -58.4733564456485,
        "nombre": "ESSO",
        "razon_social": "NUEVOS EMPRENDIMIENTOS SRL",
        "tipo_de_boca": "DUAL"
    },
    {
        "barrio": "Agronomia",
        "calle_altura": null,
        "calle_cruce": "SAN MARTIN AV.",
        "calle_nombre": "BEIRO, FRANCISCO AV.",
        "comuna": "Comuna 15",
        "cuit": "20-93430342-4",
        "domicilio": "AV. SAN MARTIN 5705 ESQ. HELGUERA, CAPITAL FED ZONA 5",
        "id": 132,
        "lat": -34.5966421140717,
        "long": -58.497167042136,
        "nombre": "ESSO",
        "razon_social": "ANTONIO RODEIRO CALVO",
        "tipo_de_boca": "LIQUIDOS"
    },
    {
        "barrio": "Liniers",
        "calle_altura": "7541.0",
        "calle_cruce": "FRAGATA TRINIDAD",
        "calle_nombre": "CASTRO, EMILIO AV.",
        "comuna": "Comuna 9",
        "cuit": "30-67605466-5",
        "domicilio": "AV. EMILIO CASTRO 7541, CAPITAL FED ZONA 1",
        "id": 133,
        "lat": -34.6556213286894,
        "long": -58.5236485846529,
        "nombre": "ESSO",
        "razon_social": "EMICAS S.R.L.",
        "tipo_de_boca": "LIQUIDOS"
    },
    {
        "barrio": "Versalles",
        "calle_altura": "1260.0",
        "calle_cruce": "IRIGOYEN",
        "calle_nombre": "ALVAREZ JONTE AV.",
        "comuna": "Comuna 10",
        "cuit": "33-66137485-9",
        "domicilio": "IRIGOYEN 1260, CAPITAL FED ZONA 5",
        "id": 134,
        "lat": -34.628799753898605,
        "long": -58.516091071868,
        "nombre": "ESSO",
        "razon_social": "VERSALLES MULTISERVICE S.R.L.",
        "tipo_de_boca": "LIQUIDOS"
    },
    {
        "barrio": "Villa Real",
        "calle_altura": null,
        "calle_cruce": "MOLIERE",
        "calle_nombre": "BEIRO, FRANCISCO AV.",
        "comuna": "Comuna 10",
        "cuit": "30-50691900-9",
        "domicilio": "AV F BEIRO 5501 Y MOLIERE, CAPITAL FED ZONA 1",
        "id": 135,
        "lat": -34.615767399168895,
        "long": -58.527726468046296,
        "nombre": "ESSO",
        "razon_social": "SERVICENTRO AMANECER - 158690",
        "tipo_de_boca": "LIQUIDOS"
    },
    {
        "barrio": "Parque Patricios",
        "calle_altura": "2984.0",
        "calle_cruce": "LA RIOJA",
        "calle_nombre": "BRASIL",
        "comuna": "Comuna 4",
        "cuit": "30-71049076-3",
        "domicilio": "AV. BRASIL 2984, CAPITAL FEDERAL",
        "id": 136,
        "lat": -34.6337714093623,
        "long": -58.405857459436206,
        "nombre": "ESSO",
        "razon_social": "TECNOLOG™A DATRI",
        "tipo_de_boca": "LIQUIDOS"
    },
    {
        "barrio": "Floresta",
        "calle_altura": "3480.0",
        "calle_cruce": "DOLORES",
        "calle_nombre": "ALBERDI, JUAN BAUTISTA AV.",
        "comuna": "Comuna 10",
        "cuit": "30-52221477-5",
        "domicilio": "JUAN B. ALBERDI 3480, CAPITAL FED ZONA 4",
        "id": 137,
        "lat": -34.6357681146964,
        "long": -58.4751773972025,
        "nombre": "ESSO",
        "razon_social": "BELESAR S.R.L.",
        "tipo_de_boca": "LIQUIDOS"
    },
    {
        "barrio": "Liniers",
        "calle_altura": "6398.0",
        "calle_cruce": "OLIDEN",
        "calle_nombre": "FALCON, RAMON L.,CNEL.",
        "comuna": "Comuna 9",
        "cuit": "30-71079313-8",
        "domicilio": "FALCON RAMON L CNEL 6398, CAPITAL FED ZONA 5",
        "id": 138,
        "lat": -34.6405990191639,
        "long": -58.5168931910311,
        "nombre": "ESSO",
        "razon_social": "UNICOMB S.R.L",
        "tipo_de_boca": "LIQUIDOS"
    },
    {
        "barrio": "Caballito",
        "calle_altura": null,
        "calle_cruce": "RIVADAVIA AV.",
        "calle_nombre": "BIEDMA, JOSE JUAN",
        "comuna": "Comuna 6",
        "cuit": "30-70942943-0",
        "domicilio": "RIVADAVIA 6045 ESQ. BIEDMA, CAPITAL FED ZONA 3",
        "id": 139,
        "lat": -34.62423097198589,
        "long": -58.4506592803436,
        "nombre": "ESSO",
        "razon_social": "ROBERTO OTERO Y JAVIER LOPEZ",
        "tipo_de_boca": "LIQUIDOS"
    },
    {
        "barrio": "Constitucion",
        "calle_altura": "1302.0",
        "calle_cruce": "SANTIAGO DEL ESTERO",
        "calle_nombre": "GARAY, JUAN DE AV.",
        "comuna": "Comuna 1",
        "cuit": "30-50691900-9",
        "domicilio": "AV. J. DE GARAY 1302, CAPITAL FED ZONA 1",
        "id": 140,
        "lat": -34.627151362253606,
        "long": -58.38457651448171,
        "nombre": "ESSO",
        "razon_social": "SERVICENTRO GARAY - 158621",
        "tipo_de_boca": "DUAL"
    },
    {
        "barrio": "Villa Luro",
        "calle_altura": null,
        "calle_cruce": "LOPE DE VEGA AV.",
        "calle_nombre": "ESCALADA DE SAN MARTIN, R.",
        "comuna": "Comuna 10",
        "cuit": "30-50691900-9",
        "domicilio": "J.B. JUSTO 8005 Y LOPE DE  VEGA, CAPITAL FED ZONA 7",
        "id": 141,
        "lat": -34.6321409021659,
        "long": -58.5015014809511,
        "nombre": "ESSO",
        "razon_social": "SERVICENTRO VILLA LURO - 158678",
        "tipo_de_boca": "LIQUIDOS"
    },
    {
        "barrio": "Nueva Pompeya",
        "calle_altura": "1733.0",
        "calle_cruce": "RABANAL, FRANCISCO, INTENDENTE AV.",
        "calle_nombre": "CRESPO",
        "comuna": "Comuna 4",
        "cuit": "30-62753962-9",
        "domicilio": "INTENDENTE RABANAL  1733, CAPITAL FED ZONA 1",
        "id": 142,
        "lat": -34.6568518523374,
        "long": -58.4230383497229,
        "nombre": "ESSO",
        "razon_social": "LEJEM S.A.",
        "tipo_de_boca": "DUAL"
    },
    {
        "barrio": "Palermo",
        "calle_altura": null,
        "calle_cruce": "CORDOBA AV.",
        "calle_nombre": "BONPLAND",
        "comuna": "Comuna 14",
        "cuit": "30-50691900-9",
        "domicilio": "CORDOBA 5653/99 ESQUINA BOMPLAND, CAPITAL FED ZONA 4",
        "id": 143,
        "lat": -34.5867411644758,
        "long": -58.441013604665,
        "nombre": "ESSO",
        "razon_social": "SERVICENTRO BOMPLAND - 158809",
        "tipo_de_boca": "DUAL"
    },
    {
        "barrio": "Nueva Pompeya",
        "calle_altura": "1501.0",
        "calle_cruce": "FERNANDEZ DE LA CRUZ, F., GRAL. AV.",
        "calle_nombre": "JUANA DE ARCO",
        "comuna": "Comuna 4",
        "cuit": "30-50691900-9",
        "domicilio": "CRUZ 1501, CAPITAL FED ZONA 2",
        "id": 144,
        "lat": -34.6479616207125,
        "long": -58.428858531413795,
        "nombre": "ESSO",
        "razon_social": "SERVICENTRO CENTENERA - 158821",
        "tipo_de_boca": "LIQUIDOS"
    },
    {
        "barrio": "Nu\\u00f1ez",
        "calle_altura": null,
        "calle_cruce": "PEDRAZA, MANUELA",
        "calle_nombre": "DEL LIBERTADOR AV.",
        "comuna": "Comuna 13",
        "cuit": "30-50691900-9",
        "domicilio": "AV. LIBERTADOR 7112 Y MANUEL A. PED, CAPITAL FED ZONA 5",
        "id": 145,
        "lat": -34.5471071814684,
        "long": -58.4574410126986,
        "nombre": "ESSO",
        "razon_social": "SERVICENTRO LIBERTADOR - 158631",
        "tipo_de_boca": "LIQUIDOS"
    },
    {
        "barrio": "Villa Pueyrredon",
        "calle_altura": "2500.0",
        "calle_cruce": "MOSCONI GENERAL AV.",
        "calle_nombre": "ARTIGAS, JOSE GERVASIO, GRAL.",
        "comuna": "Comuna 12",
        "cuit": "30-50691900-9",
        "domicilio": "AV. GRAL MOSCONI 2500, CAPITAL FED ZONA 5",
        "id": 146,
        "lat": -34.5835148143343,
        "long": -58.4973009531965,
        "nombre": "ESSO",
        "razon_social": "SERVICENTRO AMERICA - 158711",
        "tipo_de_boca": "LIQUIDOS"
    },
    {
        "barrio": "Palermo",
        "calle_altura": "2589.0",
        "calle_cruce": "SALGUERO, JERONIMO",
        "calle_nombre": "DEL LIBERTADOR AV.",
        "comuna": "Comuna 14",
        "cuit": "30-50691900-9",
        "domicilio": "AV. LIBERTADOR 2589, CAPITAL FED ZONA 3",
        "id": 147,
        "lat": -34.5786661491345,
        "long": -58.4065560947587,
        "nombre": "ESSO",
        "razon_social": "SERVICENTRO ALVEAR - 158724",
        "tipo_de_boca": "LIQUIDOS"
    },
    {
        "barrio": "Parque Chacabuco",
        "calle_altura": "802.0",
        "calle_cruce": "THOMPSON",
        "calle_nombre": "DIRECTORIO AV.",
        "comuna": "Comuna 7",
        "cuit": "30-70942943-0",
        "domicilio": "AV. DIRECTORIO 802, CAPITAL FED ZONA 3",
        "id": 148,
        "lat": -34.6289111373439,
        "long": -58.438730810981,
        "nombre": "ESSO",
        "razon_social": "ROBERTO OTERO Y JAVIER LOPEZ",
        "tipo_de_boca": "LIQUIDOS"
    },
    {
        "barrio": "Parque Chacabuco",
        "calle_altura": null,
        "calle_cruce": "PUMACAHUA",
        "calle_nombre": "DIRECTORIO AV.",
        "comuna": "Comuna 7",
        "cuit": "30-56845950-0",
        "domicilio": "DIRECTORIO 1796     ESQ. PUMACAHUA, CAPITAL FED ZONA 3",
        "id": 149,
        "lat": -34.63119111980961,
        "long": -58.4528994248401,
        "nombre": "ESSO",
        "razon_social": "KUKE S.R.L.",
        "tipo_de_boca": "LIQUIDOS"
    },
    {
        "barrio": "Caballito",
        "calle_altura": null,
        "calle_cruce": "MIRO",
        "calle_nombre": "ALBERDI, JUAN BAUTISTA AV.",
        "comuna": "Comuna 6",
        "cuit": "30-59721260-3",
        "domicilio": "AV. JUAN B. ALBERDI Y MIRO, CAPITAL FED ZONA 5",
        "id": 150,
        "lat": -34.626201025435,
        "long": -58.448929221554394,
        "nombre": "ESSO",
        "razon_social": "ALMIRO S.R.L.",
        "tipo_de_boca": "LIQUIDOS"
    },
    {
        "barrio": "Mataderos",
        "calle_altura": null,
        "calle_cruce": "CASTRO, EMILIO AV.",
        "calle_nombre": "CAFAYATE",
        "comuna": "Comuna 9",
        "cuit": "30-50691900-9",
        "domicilio": "AVDA. EMILIO CASTRO Y CAFAYATE, CAPITAL FED ZONA 5",
        "id": 151,
        "lat": -34.6508742744037,
        "long": -58.512707088871096,
        "nombre": "ESSO",
        "razon_social": "SERVICENTRO EMILIO CASTRO - 195636",
        "tipo_de_boca": "DUAL"
    },
    {
        "barrio": "Parque Chacabuco",
        "calle_altura": null,
        "calle_cruce": "CURAPALIGUE AV.",
        "calle_nombre": "ASAMBLEA AV.",
        "comuna": "Comuna 7",
        "cuit": "30-54103328-5",
        "domicilio": "ASAMBLEA Y CURAPALIGUE, CAPITAL FED ZONA 3",
        "id": 152,
        "lat": -34.636901284580496,
        "long": -58.445889170267705,
        "nombre": "ESSO",
        "razon_social": "INV EST S.C.A.",
        "tipo_de_boca": "LIQUIDOS"
    },
    {
        "barrio": "Nueva Pompeya",
        "calle_altura": "187.0",
        "calle_cruce": "USPALLATA",
        "calle_nombre": "TABORDA, DIOGENES",
        "comuna": "Comuna 4",
        "cuit": "30-64570013-5",
        "domicilio": "AV. ALMAFUERTE 187, CAPITAL FED ZONA 2",
        "id": 153,
        "lat": -34.6405315311128,
        "long": -58.4125177888074,
        "nombre": "ESSO",
        "razon_social": "ESTADIAS Y SERVICIOS S.A.",
        "tipo_de_boca": "LIQUIDOS"
    },
    {
        "barrio": "Recoleta",
        "calle_altura": "2499.0",
        "calle_cruce": "LAS HERAS GENERAL AV.",
        "calle_nombre": "GALILEO",
        "comuna": "Comuna 2",
        "cuit": "30-50691900-9",
        "domicilio": "LAS HERAS 2499, CAPITAL FED ZONA 3",
        "id": 154,
        "lat": -34.5859823542663,
        "long": -58.3986938156434,
        "nombre": "ESSO",
        "razon_social": "SERVICENTRO LAS HERAS - 158752",
        "tipo_de_boca": "LIQUIDOS"
    },
    {
        "barrio": "Flores",
        "calle_altura": "921.0",
        "calle_cruce": "SAN PEDRITO",
        "calle_nombre": "FERNANDEZ MORENO, BALDOMERO",
        "comuna": "Comuna 7",
        "cuit": "30-70897500-8",
        "domicilio": "SAN PEDRITO 921, CAPITAL FEDERAL",
        "id": 85,
        "lat": -34.6416103090114,
        "long": -58.46279091695029,
        "nombre": "OIL",
        "razon_social": "SANLAF S.R.L.",
        "tipo_de_boca": "LIQUIDOS"
    },
    {
        "barrio": "Mataderos",
        "calle_altura": null,
        "calle_cruce": "DE LA TORRE, LISANDRO AV.",
        "calle_nombre": "DIRECTORIO AV.",
        "comuna": "Comuna 9",
        "cuit": "30-70817609-1",
        "domicilio": "AVDA. L. DE LA TORRE 2179 Y AVDA. DIRECTORIO, MATADEROS",
        "id": 86,
        "lat": -34.660081530334395,
        "long": -58.5034617655773,
        "nombre": "OIL",
        "razon_social": "TALLARICO MIGUEL R Y SQUILLACE FLAVIO G",
        "tipo_de_boca": "LIQUIDOS"
    },
    {
        "barrio": "Almagro",
        "calle_altura": null,
        "calle_cruce": "MITRE, BARTOLOME",
        "calle_nombre": "BRAVO, MARIO",
        "comuna": "Comuna 5",
        "cuit": "30-64496740-5",
        "domicilio": "B. MITRE 3595 Y MARIO BRAVO, ALMAGRO",
        "id": 87,
        "lat": -34.6093977975803,
        "long": -58.41721576386779,
        "nombre": "OIL",
        "razon_social": "PETRUGAS S.A.",
        "tipo_de_boca": "DUAL"
    },
    {
        "barrio": "Balvanera",
        "calle_altura": null,
        "calle_cruce": "SAN LUIS",
        "calle_nombre": "AGUERO",
        "comuna": "Comuna 3",
        "cuit": "30-54096008-5",
        "domicilio": "SAN LUIS 3187 Y AGUERO, BALVANERA",
        "id": 88,
        "lat": -34.5992605997141,
        "long": -58.410407404292,
        "nombre": "OIL",
        "razon_social": "ESTACION DE SERVICIO SAN LUIS S.R.L.",
        "tipo_de_boca": "DUAL"
    },
    {
        "barrio": "Villa Crespo",
        "calle_altura": null,
        "calle_cruce": "SUSINI, ANTONIO, CNEL.",
        "calle_nombre": "MU\\u00d1ECAS",
        "comuna": "Comuna 15",
        "cuit": "30-70056219-7",
        "domicilio": "DORREGO 443 Y MUÑECAS, CHACARITA",
        "id": 89,
        "lat": -34.595120305373804,
        "long": -58.4512190948621,
        "nombre": "OIL",
        "razon_social": "DORREGO 443 S.R.L.",
        "tipo_de_boca": "LIQUIDOS"
    },
    {
        "barrio": "Nueva Pompeya",
        "calle_altura": "3182.0",
        "calle_cruce": "SANTA CATALINA",
        "calle_nombre": "BARCO CENTENERA DEL",
        "comuna": "Comuna 4",
        "cuit": "30-66019871-3",
        "domicilio": "CENTENERA 3182, CAPITAL FEDERAL",
        "id": 90,
        "lat": -34.6525947620732,
        "long": -58.4216122589921,
        "nombre": "OIL",
        "razon_social": "SEFER S.A.",
        "tipo_de_boca": "LIQUIDOS"
    },
    {
        "barrio": "Parque Avellaneda",
        "calle_altura": null,
        "calle_cruce": "PERON, EVA AV.",
        "calle_nombre": "ACOSTA, MARIANO",
        "comuna": "Comuna 9",
        "cuit": "23-93486129-9",
        "domicilio": "AVDA. EVA PERON 3668 / 3700 Y MARIANO ACOSTA, PARQUE AVELLANEDA",
        "id": 91,
        "lat": -34.646041391191694,
        "long": -58.46665011162721,
        "nombre": "OIL",
        "razon_social": "ANTONIO TOMAS RAMON",
        "tipo_de_boca": "DUAL"
    },
    {
        "barrio": "Constitucion",
        "calle_altura": null,
        "calle_cruce": "SALTA",
        "calle_nombre": "CASEROS AV.",
        "comuna": "Comuna 1",
        "cuit": "30-63122550-7",
        "domicilio": "AVDA. CASEROS 1399 Y SALTA, CONSTITUCION",
        "id": 92,
        "lat": -34.6314404703079,
        "long": -58.382500457564,
        "nombre": "OIL",
        "razon_social": "TOPEMA S.A.",
        "tipo_de_boca": "DUAL"
    },
    {
        "barrio": "Villa Riachuelo",
        "calle_altura": null,
        "calle_cruce": "UNANUE",
        "calle_nombre": "PIEDRA BUENA AV.",
        "comuna": "Comuna 8",
        "cuit": "30-63617801-9",
        "domicilio": "AV. LUIS PIEDRA BUENA 4611, CAPITAL FEDERAL",
        "id": 93,
        "lat": -34.685071223005,
        "long": -58.47882090671829,
        "nombre": "OIL",
        "razon_social": "ESTACION DE SERVICIO VAZQUEZ HNOS S.R.L.",
        "tipo_de_boca": "LIQUIDOS"
    },
    {
        "barrio": "Parque Avellaneda",
        "calle_altura": "4586.0",
        "calle_cruce": "WHITE",
        "calle_nombre": "DIRECTORIO AV.",
        "comuna": "Comuna 9",
        "cuit": "30-64397982-5",
        "domicilio": "AVDA. DIRECTORIO 4586, FLORESTA",
        "id": 94,
        "lat": -34.6475433260305,
        "long": -58.4868409739881,
        "nombre": "OIL",
        "razon_social": "WHITE S.R.L.",
        "tipo_de_boca": "DUAL"
    },
    {
        "barrio": "Liniers",
        "calle_altura": "996.0",
        "calle_cruce": "CHAVEZ, JORGE",
        "calle_nombre": "CARHUE",
        "comuna": "Comuna 9",
        "cuit": "30-51604787-5",
        "domicilio": "CARHUE 996, CAPITAL FEDERAL",
        "id": 95,
        "lat": -34.649703191764395,
        "long": -58.5240135571704,
        "nombre": "OIL",
        "razon_social": "PASCUALITO S.A.",
        "tipo_de_boca": "LIQUIDOS"
    },
    {
        "barrio": "Barracas",
        "calle_altura": null,
        "calle_cruce": "VIEYTES",
        "calle_nombre": "IRIARTE, GRAL. AV.",
        "comuna": "Comuna 4",
        "cuit": "30-60722333-1",
        "domicilio": "VIEYTES 1410 E IRIARTE, BARRACAS",
        "id": 96,
        "lat": -34.6489388980601,
        "long": -58.3767433397527,
        "nombre": "OIL",
        "razon_social": "LUBRIPARK S.R.L.",
        "tipo_de_boca": "LIQUIDOS"
    },
    {
        "barrio": "Caballito",
        "calle_altura": null,
        "calle_cruce": "VALLESE, FELIPE",
        "calle_nombre": "PUEYRREDON, HONORIO, DR. AV.",
        "comuna": "Comuna 6",
        "cuit": "30-55663427-7",
        "domicilio": "AVDA. HONORIO PUEYRREDON 710 Y FELIPE VALLESE, CABALLITO",
        "id": 97,
        "lat": -34.61185872923649,
        "long": -58.4426148523189,
        "nombre": "PDVSUR",
        "razon_social": "EDIFICADORA MARTINEZ ANNES S.A.C.I.I.",
        "tipo_de_boca": "DUAL"
    },
    {
        "barrio": "Villa Luro",
        "calle_altura": null,
        "calle_cruce": "JUSTO, JUAN B. AV.",
        "calle_nombre": "IRIGOYEN",
        "comuna": "Comuna 10",
        "cuit": "30-59142058-1",
        "domicilio": "AVDA. JUAN B. JUSTO 8490 E IRIGOYEN, VILLA LURO - C.A.B.A.",
        "id": 98,
        "lat": -34.634670928400695,
        "long": -58.5078817682256,
        "nombre": "PDVSUR",
        "razon_social": "RUTA AL OESTE S.R.L.",
        "tipo_de_boca": "DUAL"
    },
    {
        "barrio": "Coghlan",
        "calle_altura": "2603.0",
        "calle_cruce": "ROOSEVELT FRANKLIN D.",
        "calle_nombre": "BALBIN, RICARDO, DR. AV.",
        "comuna": "Comuna 12",
        "cuit": "30-63935426-8",
        "domicilio": "AVDA. RICARDO BALBIN 2603, BELGRANO",
        "id": 155,
        "lat": -34.5613994549019,
        "long": -58.467999559873,
        "nombre": "PETROBRAS",
        "razon_social": "DON DELFIN S.A.",
        "tipo_de_boca": "DUAL"
    },
    {
        "barrio": "Belgrano",
        "calle_altura": "5747.0",
        "calle_cruce": "LA PAMPA",
        "calle_nombre": "DEL LIBERTADOR AV.",
        "comuna": "Comuna 13",
        "cuit": "30-69161718-0",
        "domicilio": "AV. LIBERTADOR 5747, CAPITAL FEDERAL",
        "id": 165,
        "lat": -34.559176516342696,
        "long": -58.445162581994104,
        "nombre": "PETROBRAS",
        "razon_social": "Eg3 RED S.A. (La Pampa)",
        "tipo_de_boca": "LIQUIDOS"
    },
    {
        "barrio": "Paternal",
        "calle_altura": "2040.0",
        "calle_cruce": "WARNES AV.",
        "calle_nombre": "GARCIA, JUAN AGUSTIN",
        "comuna": "Comuna 15",
        "cuit": "30-64704616-5",
        "domicilio": "WARNES 2040, CAPITAL FEDERAL",
        "id": 166,
        "lat": -34.5965802746071,
        "long": -58.4642596549386,
        "nombre": "PETROBRAS",
        "razon_social": "OCTOBER S.A.",
        "tipo_de_boca": "DUAL"
    },
    {
        "barrio": "Recoleta",
        "calle_altura": null,
        "calle_cruce": "ECUADOR",
        "calle_nombre": "CORDOBA AV.",
        "comuna": "Comuna 2",
        "cuit": "30-69161718-0",
        "domicilio": "AV. CORDOBA 2733/35, CAPITAL FEDERAL",
        "id": 167,
        "lat": -34.5978705910519,
        "long": -58.405697195790786,
        "nombre": "PETROBRAS",
        "razon_social": "Eg3 RED S.A. (CORDOBA)",
        "tipo_de_boca": "GNC"
    },
    {
        "barrio": "Caballito",
        "calle_altura": "5231.0",
        "calle_cruce": "DIAZ VELEZ AV.",
        "calle_nombre": "ACOYTE",
        "comuna": "Comuna 6",
        "cuit": "30-64262178-1",
        "domicilio": "DIAZ VELEZ 5231, CAPITAL FEDERAL",
        "id": 168,
        "lat": -34.608490662657,
        "long": -58.4405287402042,
        "nombre": "PETROBRAS",
        "razon_social": "GASIT S.A.",
        "tipo_de_boca": "GNC"
    },
    {
        "barrio": "Palermo",
        "calle_altura": null,
        "calle_cruce": "SALGUERO, JERONIMO",
        "calle_nombre": "OBLIGADO RAFAEL, AV.COSTANERA",
        "comuna": "Comuna 14",
        "cuit": "30-69161718-0",
        "domicilio": "AV. COSTANERA R. OBLIGADO Y SALGUERO, CAPITAL FEDERAL",
        "id": 169,
        "lat": -34.5693569716973,
        "long": -58.399464729465706,
        "nombre": "PETROBRAS",
        "razon_social": "Eg3 RED S.A. (COSTANERA Y SALGUERO)",
        "tipo_de_boca": "DUAL"
    },
    {
        "barrio": "Mataderos",
        "calle_altura": null,
        "calle_cruce": "COSQUIN",
        "calle_nombre": "CASTRO, EMILIO AV.",
        "comuna": "Comuna 9",
        "cuit": "30-64696577-9",
        "domicilio": "EMILIO CASTRO Y COSQUIN, CAPITAL FEDERAL",
        "id": 170,
        "lat": -34.6529362995701,
        "long": -58.5171402907461,
        "nombre": "PETROBRAS",
        "razon_social": "BEIZAMA S.A.",
        "tipo_de_boca": "LIQUIDOS"
    },
    {
        "barrio": "Parque Chacabuco",
        "calle_altura": "1110.0",
        "calle_cruce": "MITRE, EMILIO",
        "calle_nombre": "DIRECTORIO AV.",
        "comuna": "Comuna 7",
        "cuit": "33-64172059-9",
        "domicilio": "DIRECTORIO 1110, CAPITAL FEDERAL",
        "id": 171,
        "lat": -34.629521129876196,
        "long": -58.443088999144,
        "nombre": "PETROBRAS",
        "razon_social": "GASTAB S.A.",
        "tipo_de_boca": "DUAL"
    },
    {
        "barrio": "Villa Lugano",
        "calle_altura": null,
        "calle_cruce": "PAZ, GRAL. AV.",
        "calle_nombre": "PERON, EVA AV.",
        "comuna": "Comuna 8",
        "cuit": "23-93486129-9",
        "domicilio": "AV. DEL TRABAJO 7460, CAPITAL FEDERAL",
        "id": 172,
        "lat": -34.6739628585508,
        "long": -58.5012177713614,
        "nombre": "PETROBRAS",
        "razon_social": "ANTONIO, TOMAS RAMON",
        "tipo_de_boca": "DUAL"
    },
    {
        "barrio": "Constitucion",
        "calle_altura": null,
        "calle_cruce": "HUMBERTO 1\\u00b0",
        "calle_nombre": "ENTRE RIOS AV.",
        "comuna": "Comuna 1",
        "cuit": "30-63617795-0",
        "domicilio": "ENTRE RIOS 1102 Y HUMBERTO 1›, CAPITAL FEDERAL",
        "id": 156,
        "lat": -34.6216812042837,
        "long": -58.3913567613483,
        "nombre": "PETROBRAS",
        "razon_social": "COMBUSTIBLES VAZQUEZ HNOS. S.R.L.",
        "tipo_de_boca": "DUAL"
    },
    {
        "barrio": "Villa Crespo",
        "calle_altura": "4060.0",
        "calle_cruce": "ESTADO DE ISRAEL AV.",
        "calle_nombre": "CORDOBA AV.",
        "comuna": "Comuna 15",
        "cuit": "30-64600655-0",
        "domicilio": "AV. CORDOBA 4060, CAPITAL FEDERAL",
        "id": 157,
        "lat": -34.5976544972201,
        "long": -58.4238689602541,
        "nombre": "PETROBRAS",
        "razon_social": "GALPRO S.A.",
        "tipo_de_boca": "GNC"
    },
    {
        "barrio": "Barracas",
        "calle_altura": null,
        "calle_cruce": "VELEZ SARSFIELD AV.",
        "calle_nombre": "CORTEJARENA, JOSE A.",
        "comuna": "Comuna 4",
        "cuit": "30-69161718-0",
        "domicilio": "AV.V.SARFIELD Y CORTEJARENA, CAPITAL FEDERAL",
        "id": 158,
        "lat": -34.640862650793096,
        "long": -58.3895978243258,
        "nombre": "PETROBRAS",
        "razon_social": "Eg3 RED S.A. (V.SARFIELD)",
        "tipo_de_boca": "DUAL"
    },
    {
        "barrio": "Liniers",
        "calle_altura": null,
        "calle_cruce": "RIVADAVIA AV.",
        "calle_nombre": "MURGUIONDO",
        "comuna": "Comuna 9",
        "cuit": "30-69161718-0",
        "domicilio": "RIVADAVIA 10984 Y MURGUIONDO, CAPITAL FEDERAL",
        "id": 159,
        "lat": -34.6393099812785,
        "long": -58.5186062539301,
        "nombre": "PETROBRAS",
        "razon_social": "Eg3 RED S.A. (LINIERS)",
        "tipo_de_boca": "DUAL"
    },
    {
        "barrio": "Parque Avellaneda",
        "calle_altura": "1729.0",
        "calle_cruce": "LACARRA AV.",
        "calle_nombre": "ECHEANDIA",
        "comuna": "Comuna 9",
        "cuit": "30-64441993-9",
        "domicilio": "LACARRA 1729, CAPITAL FEDERAL",
        "id": 160,
        "lat": -34.6508914958894,
        "long": -58.46788019846071,
        "nombre": "PETROBRAS",
        "razon_social": "EVAH S.A.",
        "tipo_de_boca": "DUAL"
    },
    {
        "barrio": "Nu\\u00f1ez",
        "calle_altura": null,
        "calle_cruce": "RIVADAVIA MARTIN, COMODORO",
        "calle_nombre": "CABILDO AV.",
        "comuna": "Comuna 13",
        "cuit": "30-69161718-0",
        "domicilio": "AV. CABILDO ESQ JARAMILLO, CAPITAL FEDERAL",
        "id": 161,
        "lat": -34.5480971498367,
        "long": -58.46847648453079,
        "nombre": "PETROBRAS",
        "razon_social": "Eg3 RED S.A. (Alvisa)",
        "tipo_de_boca": "DUAL"
    },
    {
        "barrio": "Almagro",
        "calle_altura": "3933.0",
        "calle_cruce": "YAPEYU",
        "calle_nombre": "INDEPENDENCIA AV.",
        "comuna": "Comuna 5",
        "cuit": "30-64588100-8",
        "domicilio": "AV. INDEPENDENCIA 3933, CAPITAL FEDERAL",
        "id": 162,
        "lat": -34.621220047414305,
        "long": -58.42127401967499,
        "nombre": "PETROBRAS",
        "razon_social": "GRUPO GAS S.R.L.",
        "tipo_de_boca": "GNC"
    },
    {
        "barrio": "Villa Gral. Mitre",
        "calle_altura": "1671.0",
        "calle_cruce": "TRELLES, MANUEL R.",
        "calle_nombre": "JUSTO, JUAN B. AV.",
        "comuna": "Comuna 11",
        "cuit": "30-69286757-9",
        "domicilio": "TRELLES 1671, CAPITAL FEDERAL",
        "id": 163,
        "lat": -34.608243543529,
        "long": -58.4636427127717,
        "nombre": "PETROBRAS",
        "razon_social": "CONSTRUCTORA DEL POLO S.A.",
        "tipo_de_boca": "DUAL"
    },
    {
        "barrio": "Balvanera",
        "calle_altura": null,
        "calle_cruce": "RIVADAVIA AV.",
        "calle_nombre": "JAURES, JEAN",
        "comuna": "Comuna 3",
        "cuit": "30-69161718-0",
        "domicilio": "AV. RIVADAVIA  3084 Y URQUIZA, CAPITAL FEDERAL",
        "id": 164,
        "lat": -34.610616860092804,
        "long": -58.410123473570096,
        "nombre": "PETROBRAS",
        "razon_social": "Eg3 RED S.A.  (ONCE)",
        "tipo_de_boca": "DUAL"
    },
    {
        "barrio": "Velez Sarsfield",
        "calle_altura": null,
        "calle_cruce": "OLIVERA AV.",
        "calle_nombre": "FALCON, RAMON L.,CNEL.",
        "comuna": "Comuna 10",
        "cuit": "30-65084645-8",
        "domicilio": "AV. OLIVERA 95 ESQ. RAMON FALCON, CAPITAL FEDERAL",
        "id": 681,
        "lat": -34.6364460694244,
        "long": -58.4875079220236,
        "nombre": "RHASA",
        "razon_social": "R E M E S A",
        "tipo_de_boca": "DUAL"
    },
    {
        "barrio": "Chacarita",
        "calle_altura": null,
        "calle_cruce": "FOREST AV.",
        "calle_nombre": "CORRIENTES AV.",
        "comuna": "Comuna 15",
        "cuit": "30-51618667-0",
        "domicilio": "AV. CORRIENTES 6535 Y NEWBERY, CAPITAL FEDERAL",
        "id": 173,
        "lat": -34.5886721619783,
        "long": -58.4504940180336,
        "nombre": "SHELL",
        "razon_social": "DEHEZA SAICFEI",
        "tipo_de_boca": "DUAL"
    },
    {
        "barrio": "Villa Gral. Mitre",
        "calle_altura": "4407.0",
        "calle_cruce": "JUSTO, JUAN B. AV.",
        "calle_nombre": "ALVAREZ, DONATO, TTE. GRAL.",
        "comuna": "Comuna 11",
        "cuit": "30-57430085-8",
        "domicilio": "AV. JUAN B. JUSTO 4407, CAPITAL FEDERAL",
        "id": 174,
        "lat": -34.6072155233816,
        "long": -58.462972677137785,
        "nombre": "SHELL",
        "razon_social": "BRAMO S.A.",
        "tipo_de_boca": "LIQUIDOS"
    },
    {
        "barrio": "Belgrano",
        "calle_altura": "3019.0",
        "calle_cruce": "ZUBERBUHLER, CARLOS E.",
        "calle_nombre": "DE LOS INCAS AV.",
        "comuna": "Comuna 13",
        "cuit": "30-70197268-2",
        "domicilio": "AV. DE LOS INCAS 3019, CAPITAL FEDERAL",
        "id": 175,
        "lat": -34.5698796954488,
        "long": -58.458329213356286,
        "nombre": "SHELL",
        "razon_social": "PRESIDENTE URIBURU 1262 SRL",
        "tipo_de_boca": "DUAL"
    },
    {
        "barrio": "Paternal",
        "calle_altura": "2401.0",
        "calle_cruce": "SAN MARTIN AV.",
        "calle_nombre": "ORO\\u00d1O, NICASIO",
        "comuna": "Comuna 15",
        "cuit": "30-70208832-8",
        "domicilio": "AV. SAN MARTIN 2401, CAPITAL FEDERAL",
        "id": 176,
        "lat": -34.6034354439835,
        "long": -58.4615915917539,
        "nombre": "SHELL",
        "razon_social": "FAST OIL S.A.",
        "tipo_de_boca": "LIQUIDOS"
    },
    {
        "barrio": "Belgrano",
        "calle_altura": "1691.0",
        "calle_cruce": "PINO, VIRREY DEL",
        "calle_nombre": "CRAMER",
        "comuna": "Comuna 13",
        "cuit": "30-51618667-0",
        "domicilio": "AV. CRAMER 1691, CAPITAL FEDERAL",
        "id": 177,
        "lat": -34.5688636770155,
        "long": -58.4573711657086,
        "nombre": "SHELL",
        "razon_social": "DEHEZA SAICFEI",
        "tipo_de_boca": "LIQUIDOS"
    },
    {
        "barrio": "Nueva Pompeya",
        "calle_altura": "1093.0",
        "calle_cruce": "ATUEL",
        "calle_nombre": "ALCORTA, AMANCIO AV.",
        "comuna": "Comuna 4",
        "cuit": "30-60889733-6",
        "domicilio": "ATUEL 1093, CAPITAL FEDERAL",
        "id": 178,
        "lat": -34.649839778165195,
        "long": -58.405479558618495,
        "nombre": "SHELL",
        "razon_social": "PASGAL SA",
        "tipo_de_boca": "LIQUIDOS"
    },
    {
        "barrio": "Flores",
        "calle_altura": "2411.0",
        "calle_cruce": "FRAY CAYETANO RODRIGUEZ",
        "calle_nombre": "AVELLANEDA AV.",
        "comuna": "Comuna 7",
        "cuit": "30-70804129-3",
        "domicilio": "AV. AVELLANEDA 2411, CAPITAL FEDERAL",
        "id": 179,
        "lat": -34.6239708975902,
        "long": -58.46458986582721,
        "nombre": "SHELL",
        "razon_social": "AVELLANEDA  2411 SRL 2",
        "tipo_de_boca": "LIQUIDOS"
    },
    {
        "barrio": "Palermo",
        "calle_altura": "1333.0",
        "calle_cruce": "HONDURAS",
        "calle_nombre": "DARWIN",
        "comuna": "Comuna 14",
        "cuit": "33-64966902-9",
        "domicilio": "AV.JUAN B.JUSTO 1333, CAPITAL FEDERAL",
        "id": 180,
        "lat": -34.585420167188396,
        "long": -58.4343183130453,
        "nombre": "SHELL",
        "razon_social": "JUAN B JUSTO 1333 S.A",
        "tipo_de_boca": "DUAL"
    },
    {
        "barrio": "Parque Avellaneda",
        "calle_altura": "1195.0",
        "calle_cruce": "LAFERRERE, GREGORIO DE",
        "calle_nombre": "ACOSTA, MARIANO AV.",
        "comuna": "Comuna 9",
        "cuit": "30-57770479-8",
        "domicilio": "MARIANO ACOSTA 1195, CAPITAL FEDERAL",
        "id": 181,
        "lat": -34.643717320395005,
        "long": -58.4702532468394,
        "nombre": "SHELL",
        "razon_social": "ROAL S R L",
        "tipo_de_boca": "LIQUIDOS"
    },
    {
        "barrio": "Villa Del Parque",
        "calle_altura": "2502.0",
        "calle_cruce": "NAZCA AV.",
        "calle_nombre": "LASCANO",
        "comuna": "Comuna 11",
        "cuit": "30-70729527-5",
        "domicilio": "NAZCA 2502, CAPITAL FEDERAL",
        "id": 182,
        "lat": -34.606818403492305,
        "long": -58.4855016238507,
        "nombre": "SHELL",
        "razon_social": "ESTACION DE SERVICIO LASCANO 2000 S",
        "tipo_de_boca": "DUAL"
    },
    {
        "barrio": "Barracas",
        "calle_altura": null,
        "calle_cruce": "RIO CUARTO",
        "calle_nombre": "HORNOS, GRAL.",
        "comuna": "Comuna 4",
        "cuit": "30-71249044-2",
        "domicilio": "AV. MONTES DE OCA 1885 Y RIO CUARTO, CAPITAL FEDERAL",
        "id": 183,
        "lat": -34.649139920538694,
        "long": -58.3730791865843,
        "nombre": "SHELL",
        "razon_social": "MONTES DE OCA 1885 S.R.L.",
        "tipo_de_boca": "DUAL"
    },
    {
        "barrio": "Recoleta",
        "calle_altura": null,
        "calle_cruce": "OBLIGADO RAFAEL, AV.COSTANERA",
        "calle_nombre": "CASTILLO, RAMON S., PRES. AV.",
        "comuna": "Comuna 2",
        "cuit": "30-51618667-0",
        "domicilio": "AV RAFAEL OBLIGADO S/N Y CALLE 13 S/N, CAPITAL FEDERAL",
        "id": 184,
        "lat": -34.5723500703277,
        "long": -58.3932264879379,
        "nombre": "SHELL",
        "razon_social": "DEHEZA SAICFEI N.39",
        "tipo_de_boca": "LIQUIDOS"
    },
    {
        "barrio": "Palermo",
        "calle_altura": "5371.0",
        "calle_cruce": "DORREGO AV.",
        "calle_nombre": "CABILDO AV.",
        "comuna": "Comuna 14",
        "cuit": "30-51618667-0",
        "domicilio": "AV. SANTA FE 5371, CAPITAL FEDERAL",
        "id": 185,
        "lat": -34.5749939265377,
        "long": -58.4349542651776,
        "nombre": "SHELL",
        "razon_social": "DEHEZA SAICFEI",
        "tipo_de_boca": "LIQUIDOS"
    },
    {
        "barrio": "Belgrano",
        "calle_altura": "7786.0",
        "calle_cruce": "UDAONDO, GUILLERMO AV.",
        "calle_nombre": "FIGUEROA ALCORTA, PRES. AV.",
        "comuna": "Comuna 13",
        "cuit": "30-51618667-0",
        "domicilio": "AV. FIGUEROA ALCORTA 7786, CAPITAL FEDERAL",
        "id": 186,
        "lat": -34.5465131949693,
        "long": -58.4519317764286,
        "nombre": "SHELL",
        "razon_social": "DEHEZA SAICFEI",
        "tipo_de_boca": "LIQUIDOS"
    },
    {
        "barrio": "Almagro",
        "calle_altura": "4368.0",
        "calle_cruce": "YATAY",
        "calle_nombre": "DIAZ VELEZ AV.",
        "comuna": "Comuna 5",
        "cuit": "30-51618667-0",
        "domicilio": "AV. DIAZ VELEZ 4368, CAPITAL FEDERAL",
        "id": 187,
        "lat": -34.608906728621,
        "long": -58.4290092575588,
        "nombre": "SHELL",
        "razon_social": "DEHEZA S.A.",
        "tipo_de_boca": "LIQUIDOS"
    },
    {
        "barrio": "Nueva Pompeya",
        "calle_altura": "2435.0",
        "calle_cruce": "GUAL",
        "calle_nombre": "FERNANDEZ DE LA CRUZ, F., GRAL. AV.",
        "comuna": "Comuna 4",
        "cuit": "30-52949557-5",
        "domicilio": "GUAL 2435, CAPITAL FEDERAL",
        "id": 188,
        "lat": -34.6448175727208,
        "long": -58.424002303991095,
        "nombre": "SHELL",
        "razon_social": "MANZANO HNOS.",
        "tipo_de_boca": "LIQUIDOS"
    },
    {
        "barrio": "Nu\\u00f1ez",
        "calle_altura": "7920.0",
        "calle_cruce": "RIVADAVIA MARTIN, COMODORO",
        "calle_nombre": "DEL LIBERTADOR AV.",
        "comuna": "Comuna 13",
        "cuit": "30-51618667-0",
        "domicilio": "AV. LIBERTADOR 7920, CAPITAL FEDERAL",
        "id": 189,
        "lat": -34.5418910352309,
        "long": -58.463061211999104,
        "nombre": "SHELL",
        "razon_social": "DEHEZA SAICFEI",
        "tipo_de_boca": "LIQUIDOS"
    },
    {
        "barrio": "Villa Devoto",
        "calle_altura": "3999.0",
        "calle_cruce": "LINCOLN AV.",
        "calle_nombre": "BAHIA BLANCA",
        "comuna": "Comuna 11",
        "cuit": "30-51618667-0",
        "domicilio": "LINCOLN 3999, CAPITAL FEDERAL",
        "id": 190,
        "lat": -34.5994791140932,
        "long": -58.510272614836104,
        "nombre": "SHELL",
        "razon_social": "DEHEZA SAICFEI",
        "tipo_de_boca": "LIQUIDOS"
    },
    {
        "barrio": "Almagro",
        "calle_altura": null,
        "calle_cruce": "MAZA",
        "calle_nombre": "BELGRANO AV.",
        "comuna": "Comuna 5",
        "cuit": "30-51618667-0",
        "domicilio": "MAZA 391/97, CAPITAL FEDERAL",
        "id": 191,
        "lat": -34.6155169431677,
        "long": -58.415989755996286,
        "nombre": "SHELL",
        "razon_social": "DEHEZA SAICFEI",
        "tipo_de_boca": "LIQUIDOS"
    },
    {
        "barrio": "Balvanera",
        "calle_altura": "3101.0",
        "calle_cruce": "JAURES, JEAN",
        "calle_nombre": "CORRIENTES AV.",
        "comuna": "Comuna 3",
        "cuit": "30-69524367-3",
        "domicilio": "AV. CORRIENTES 3101, CAPITAL FEDERAL",
        "id": 192,
        "lat": -34.6039307128592,
        "long": -58.409047380362395,
        "nombre": "SHELL",
        "razon_social": "YAPAY NEASA S.R.L.",
        "tipo_de_boca": "LIQUIDOS"
    },
    {
        "barrio": "Villa Devoto",
        "calle_altura": "4610.0",
        "calle_cruce": "JUAREZ, BENITO",
        "calle_nombre": "BEIRO, FRANCISCO AV.",
        "comuna": "Comuna 11",
        "cuit": "30-57040767-4",
        "domicilio": "AV. FRANCISCO BEIR… 4610, CAPITAL FEDERAL",
        "id": 193,
        "lat": -34.608420291799696,
        "long": -58.5155569020701,
        "nombre": "SHELL",
        "razon_social": "SUPERSERVICE S.A.",
        "tipo_de_boca": "LIQUIDOS"
    },
    {
        "barrio": "Saavedra",
        "calle_altura": "3560.0",
        "calle_cruce": "LARRALDE, CRISOLOGO AV.",
        "calle_nombre": "BALBIN, RICARDO, DR. AV.",
        "comuna": "Comuna 12",
        "cuit": "30-69524367-3",
        "domicilio": "AV. BALBIN 3560, CAPITAL FEDERAL",
        "id": 194,
        "lat": -34.5562892751552,
        "long": -58.48091006695071,
        "nombre": "SHELL",
        "razon_social": "YAPAY NEASA S.R.L.",
        "tipo_de_boca": "LIQUIDOS"
    },
    {
        "barrio": "Villa Lugano",
        "calle_altura": null,
        "calle_cruce": "AUTOPISTA DELLEPIANE LUIS TTE. GRAL.",
        "calle_nombre": "DELLEPIANE, LUIS, TTE. GRAL.",
        "comuna": "Comuna 8",
        "cuit": "33-71227653-9",
        "domicilio": "AV. T.G.DELLEPIANE 5950 Y CAFAYATE, CAPITAL FEDERAL",
        "id": 195,
        "lat": -34.6775950540175,
        "long": -58.4784308362395,
        "nombre": "SHELL",
        "razon_social": "CASTAÑO AUTOVOX SRL",
        "tipo_de_boca": "LIQUIDOS"
    },
    {
        "barrio": "Barracas",
        "calle_altura": "2550.0",
        "calle_cruce": "SALOM",
        "calle_nombre": "AUSTRALIA AV.",
        "comuna": "Comuna 4",
        "cuit": "33-59794471-9",
        "domicilio": "AUSTRALIA 2550, CAPITAL FEDERAL",
        "id": 196,
        "lat": -34.6460388013935,
        "long": -58.3829715817994,
        "nombre": "SHELL",
        "razon_social": "INTEGRAL ESTACION SOLA S.A.",
        "tipo_de_boca": "LIQUIDOS"
    },
    {
        "barrio": "Flores",
        "calle_altura": "383.0",
        "calle_cruce": "BOYACA AV.",
        "calle_nombre": "AVELLANEDA AV.",
        "comuna": "Comuna 7",
        "cuit": "33-70934480-9",
        "domicilio": "AV. BOYACæ 383, CAPITAL FEDERAL",
        "id": 197,
        "lat": -34.622490889537694,
        "long": -58.4593596346651,
        "nombre": "SHELL",
        "razon_social": "ALBERDI 2299 SRL - 285",
        "tipo_de_boca": "LIQUIDOS"
    },
    {
        "barrio": "Balvanera",
        "calle_altura": null,
        "calle_cruce": "24 DE NOVIEMBRE",
        "calle_nombre": "INDEPENDENCIA AV.",
        "comuna": "Comuna 3",
        "cuit": "30-51618667-0",
        "domicilio": "24 DE NOVIEMBRE E INDEPENDENCIA, CAPITAL FEDERAL",
        "id": 198,
        "lat": -34.6202190748471,
        "long": -58.4110055795015,
        "nombre": "SHELL",
        "razon_social": "DEHEZA SAICFEI",
        "tipo_de_boca": "LIQUIDOS"
    },
    {
        "barrio": "Parque Chacabuco",
        "calle_altura": "19.0",
        "calle_cruce": "LA PLATA AV.",
        "calle_nombre": "ASAMBLEA AV.",
        "comuna": "Comuna 7",
        "cuit": "30-70705946-6",
        "domicilio": "ASAMBLEA 19, CAPITAL FEDERAL",
        "id": 199,
        "lat": -34.6313202546496,
        "long": -58.426023292379206,
        "nombre": "SHELL",
        "razon_social": "ESTACION S.A",
        "tipo_de_boca": "LIQUIDOS"
    },
    {
        "barrio": "Recoleta",
        "calle_altura": "1676.0",
        "calle_cruce": "PARAGUAY",
        "calle_nombre": "CAPDEVILA, ARTURO",
        "comuna": "Comuna 2",
        "cuit": "30-64572255-4",
        "domicilio": "PARAGUAY 1676, CAPITAL FEDERAL",
        "id": 200,
        "lat": -34.5986406825575,
        "long": -58.390560563174894,
        "nombre": "SHELL",
        "razon_social": "SERVINORTE S.A.",
        "tipo_de_boca": "DUAL"
    },
    {
        "barrio": "Flores",
        "calle_altura": "2886.0",
        "calle_cruce": "GAONA AV.",
        "calle_nombre": "CARACAS",
        "comuna": "Comuna 7",
        "cuit": "30-71001101-6",
        "domicilio": "AV. GAONA 2886, CAPITAL FEDERAL",
        "id": 201,
        "lat": -34.6168427260526,
        "long": -58.46640589109901,
        "nombre": "SHELL",
        "razon_social": "CARACAS COMBUSTIBLE SRL - 28",
        "tipo_de_boca": "LIQUIDOS"
    },
    {
        "barrio": "Almagro",
        "calle_altura": null,
        "calle_cruce": "SALGUERO, JERONIMO",
        "calle_nombre": "CORDOBA AV.",
        "comuna": "Comuna 5",
        "cuit": "30-51618667-0",
        "domicilio": "AV. C…ORDOBA 3710 Y SALGUERO, CAPITAL FEDERAL",
        "id": 202,
        "lat": -34.5979535271792,
        "long": -58.4191417631311,
        "nombre": "SHELL",
        "razon_social": "DEHEZA SAICFEI",
        "tipo_de_boca": "LIQUIDOS"
    },
    {
        "barrio": "Parque Patricios",
        "calle_altura": "1803.0",
        "calle_cruce": "ENTRE RIOS AV.",
        "calle_nombre": "BRASIL",
        "comuna": "Comuna 4",
        "cuit": "30-63776900-2",
        "domicilio": "AV. ENTRE RIOS 1803, CAPITAL FEDERAL",
        "id": 203,
        "lat": -34.629631386384695,
        "long": -58.391226812708794,
        "nombre": "SHELL",
        "razon_social": "ROCCA COMBUSTIBLES SA - 486",
        "tipo_de_boca": "LIQUIDOS"
    },
    {
        "barrio": "Balvanera",
        "calle_altura": null,
        "calle_cruce": "MEXICO",
        "calle_nombre": "JUJUY AV.",
        "comuna": "Comuna 3",
        "cuit": "30-71228904-6",
        "domicilio": "MEXICO 2701 Y JUJUY, CAPITAL FEDERAL",
        "id": 204,
        "lat": -34.616925031993105,
        "long": -58.404401277430495,
        "nombre": "SHELL",
        "razon_social": "IMPIERI, PIÑEIRO, RIZZO Y ASOCIADOS S.A.",
        "tipo_de_boca": "DUAL"
    },
    {
        "barrio": "Nu\\u00f1ez",
        "calle_altura": "4701.0",
        "calle_cruce": "DEHEZA",
        "calle_nombre": "CABILDO AV.",
        "comuna": "Comuna 13",
        "cuit": "30-51618667-0",
        "domicilio": "AV. CABILDO 4701, CAPITAL FEDERAL",
        "id": 205,
        "lat": -34.5413789711133,
        "long": -58.4737496583984,
        "nombre": "SHELL",
        "razon_social": "DEHEZA SAICFEI",
        "tipo_de_boca": "LIQUIDOS"
    },
    {
        "barrio": "Palermo",
        "calle_altura": "3099.0",
        "calle_cruce": "OBARRIO MANUEL",
        "calle_nombre": "CASTILLA, RAMON, MARISCAL",
        "comuna": "Comuna 14",
        "cuit": "30-51618667-0",
        "domicilio": "AV. FIGUEROA ALCORTA 3099, CAPITAL FEDERAL",
        "id": 206,
        "lat": -34.5796002023137,
        "long": -58.4000268262593,
        "nombre": "SHELL",
        "razon_social": "DEHEZA SAICFEI",
        "tipo_de_boca": "LIQUIDOS"
    },
    {
        "barrio": "Saavedra",
        "calle_altura": null,
        "calle_cruce": "PAZ, GRAL. AV.",
        "calle_nombre": "GERCHUNOFF, ALBERTO",
        "comuna": "Comuna 12",
        "cuit": "30-51618667-0",
        "domicilio": "AV. GRAL. PAZ 5500- MANO CAPITAL, CAPITAL FEDERAL",
        "id": 207,
        "lat": -34.5603392494382,
        "long": -58.5048611047553,
        "nombre": "SHELL",
        "razon_social": "DEHEZA SA",
        "tipo_de_boca": "LIQUIDOS"
    },
    {
        "barrio": "Palermo",
        "calle_altura": "1502.0",
        "calle_cruce": "JUSTO, JUAN B. AV.",
        "calle_nombre": "EL SALVADOR",
        "comuna": "Comuna 14",
        "cuit": "30-70765158-6",
        "domicilio": "AV.JUAN B.JUSTO 1502, CAPITAL FEDERAL",
        "id": 208,
        "lat": -34.5844401471111,
        "long": -58.4338582866393,
        "nombre": "SHELL",
        "razon_social": "DEFAZIO S.A.",
        "tipo_de_boca": "DUAL"
    },
    {
        "barrio": "San Telmo",
        "calle_altura": "849.0",
        "calle_cruce": "PASEO COLON AV.",
        "calle_nombre": "GIUFFRA, JOSE M.,DR.",
        "comuna": "Comuna 1",
        "cuit": "30-51618667-0",
        "domicilio": "AV. PASEO COLON 849, CAPITAL FEDERAL",
        "id": 209,
        "lat": -34.6180772278652,
        "long": -58.3696708210252,
        "nombre": "SHELL",
        "razon_social": "DEHEZA SAICFEI",
        "tipo_de_boca": "LIQUIDOS"
    },
    {
        "barrio": "Constitucion",
        "calle_altura": "1890.0",
        "calle_cruce": "ENTRE RIOS AV.",
        "calle_nombre": "ECHAGUE, PEDRO",
        "comuna": "Comuna 1",
        "cuit": "30-63776900-2",
        "domicilio": "AV. ENTRE RIOS 1890, CAPITAL FEDERAL",
        "id": 210,
        "lat": -34.6303404053316,
        "long": -58.3906617939471,
        "nombre": "SHELL",
        "razon_social": "ROCCA COMBUSTIBLES SA - 1307",
        "tipo_de_boca": "LIQUIDOS"
    },
    {
        "barrio": "Versalles",
        "calle_altura": null,
        "calle_cruce": "MIRANDA",
        "calle_nombre": "JUSTO, JUAN B. AV.",
        "comuna": "Comuna 10",
        "cuit": "30-67791583-4",
        "domicilio": "AV JUAN B. JUSTO Nõ 9091, CAPITAL FEDERAL",
        "id": 211,
        "lat": -34.6329308448949,
        "long": -58.51674912948461,
        "nombre": "SHELL",
        "razon_social": "SERVICIO SAN JORGE S.A.",
        "tipo_de_boca": "LIQUIDOS"
    },
    {
        "barrio": "Barracas",
        "calle_altura": null,
        "calle_cruce": "PERDRIEL",
        "calle_nombre": "LOS PATOS",
        "comuna": "Comuna 4",
        "cuit": "30-52996331-5",
        "domicilio": "AV.AMANCIO ALCORTA Y LOS PATOS, CAPITAL FEDERAL",
        "id": 212,
        "lat": -34.637011576777304,
        "long": -58.3867466765056,
        "nombre": "SHELL",
        "razon_social": "GHIOLDI HNOS S A T C I F",
        "tipo_de_boca": "LIQUIDOS"
    },
    {
        "barrio": "Recoleta",
        "calle_altura": null,
        "calle_cruce": "SIN NOMBRE OFICIAL (ALT. AV RAFAEL OBLIGADO 1170)",
        "calle_nombre": "CASTILLO, RAMON S., PRES. AV.",
        "comuna": "Comuna 2",
        "cuit": "30-51618667-0",
        "domicilio": "AUT. ILLIA ENTRE 7 Y PEAJE, CAPITAL FEDERAL",
        "id": 213,
        "lat": -34.5763701730918,
        "long": -58.3909364200992,
        "nombre": "SHELL",
        "razon_social": "DEHEZA SAICFEI",
        "tipo_de_boca": "LIQUIDOS"
    },
    {
        "barrio": "Mataderos",
        "calle_altura": "5698.0",
        "calle_cruce": "LARRAYA",
        "calle_nombre": "DIRECTORIO AV.",
        "comuna": "Comuna 9",
        "cuit": "27-15248236-7",
        "domicilio": "AV.DIRECTORIO 5698, CAPITAL FEDERAL",
        "id": 214,
        "lat": -34.6554774605901,
        "long": -58.49629042982221,
        "nombre": "SHELL",
        "razon_social": "PARENTE MARGARITA",
        "tipo_de_boca": "LIQUIDOS"
    },
    {
        "barrio": "Villa Ortuzar",
        "calle_altura": "2010.0",
        "calle_cruce": "DONADO",
        "calle_nombre": "ALVAREZ THOMAS AV.",
        "comuna": "Comuna 15",
        "cuit": "30-70855280-8",
        "domicilio": "A.THOMAS 2010, CAPITAL FEDERAL",
        "id": 215,
        "lat": -34.5786528376455,
        "long": -58.4700577704529,
        "nombre": "SHELL",
        "razon_social": "ROJO Y AMARILLO SRL",
        "tipo_de_boca": "LIQUIDOS"
    },
    {
        "barrio": "Mataderos",
        "calle_altura": null,
        "calle_cruce": "CARHUE",
        "calle_nombre": "ARTIGAS MANUEL DE",
        "comuna": "Comuna 9",
        "cuit": "30-63776900-2",
        "domicilio": "Av. Juan B. Alberdi 7019 Y CARHUE, CAPITAL FEDERAL",
        "id": 216,
        "lat": -34.6589444589008,
        "long": -58.5126631454299,
        "nombre": "SHELL",
        "razon_social": "ROCCA COMBUSTIBLES S.A.",
        "tipo_de_boca": "LIQUIDOS"
    },
    {
        "barrio": "Villa Urquiza",
        "calle_altura": null,
        "calle_cruce": "DE LOS CONSTITUYENTES AV.",
        "calle_nombre": "CUBAS, JOSE",
        "comuna": "Comuna 12",
        "cuit": "30-68069096-7",
        "domicilio": "AV.DE LOS CONTITUYENTES 4435, CAPITAL FEDERAL",
        "id": 218,
        "lat": -34.5826688262097,
        "long": -58.4909776807058,
        "nombre": "SHELL",
        "razon_social": "ACENAF S.R.L.",
        "tipo_de_boca": "LIQUIDOS"
    },
    {
        "barrio": "Agronomia",
        "calle_altura": "3516.0",
        "calle_cruce": "DE LOS CONSTITUYENTES AV.",
        "calle_nombre": "BEIRO, FRANCISCO AV.",
        "comuna": "Comuna 15",
        "cuit": "30-51677394-0",
        "domicilio": "AV. CONSTITUYENTES 3516, CAPITAL FEDERAL",
        "id": 219,
        "lat": -34.5890880020307,
        "long": -58.4849674736808,
        "nombre": "SHELL",
        "razon_social": "COLON S.R.L.",
        "tipo_de_boca": "LIQUIDOS"
    },
    {
        "barrio": "Boedo",
        "calle_altura": "3702.0",
        "calle_cruce": "CHICLANA AV.",
        "calle_nombre": "BOEDO AV.",
        "comuna": "Comuna 5",
        "cuit": "33-70085127-9",
        "domicilio": "AV. CHICLANA 3702, CAPITAL FEDERAL",
        "id": 220,
        "lat": -34.637933453393394,
        "long": -58.416273928616896,
        "nombre": "SHELL",
        "razon_social": "DEVOTO STATION SA",
        "tipo_de_boca": "LIQUIDOS"
    },
    {
        "barrio": "Boca",
        "calle_altura": null,
        "calle_cruce": "20 DE SETIEMBRE",
        "calle_nombre": "BROWN, ALTE. AV.",
        "comuna": "Comuna 4",
        "cuit": "30-61180071-8",
        "domicilio": "AVENIDA ALMIRANTE GUILLERMO BROWN 600 Y 20 DE SEPTIEMBRE, CAPITAL FEDERAL",
        "id": 221,
        "lat": -34.6300295305156,
        "long": -58.3635546483074,
        "nombre": "SHELL",
        "razon_social": "UPAT",
        "tipo_de_boca": "DUAL"
    },
    {
        "barrio": "Retiro",
        "calle_altura": "550.0",
        "calle_cruce": "PELLEGRINI, CARLOS",
        "calle_nombre": "DEL LIBERTADOR AV.",
        "comuna": "Comuna 1",
        "cuit": "30-51618667-0",
        "domicilio": "LIBERTADOR 550, CAPITAL FEDERAL",
        "id": 222,
        "lat": -34.589289513957404,
        "long": -58.3814191110808,
        "nombre": "SHELL",
        "razon_social": "DEHEZA SAICFEI",
        "tipo_de_boca": "LIQUIDOS"
    },
    {
        "barrio": "Villa Riachuelo",
        "calle_altura": null,
        "calle_cruce": "SALADILLO",
        "calle_nombre": "ROCA, CNEL. AV.",
        "comuna": "Comuna 8",
        "cuit": "30-64449690-9",
        "domicilio": "AV.CNEL.ROCA N› 6883, CAPITAL FEDERAL",
        "id": 223,
        "lat": -34.6969705419266,
        "long": -58.4693295921429,
        "nombre": "SHELL",
        "razon_social": "TRIGAS S.A.",
        "tipo_de_boca": "DUAL"
    },
    {
        "barrio": "Villa Soldati",
        "calle_altura": "3205.0",
        "calle_cruce": "PORTELA",
        "calle_nombre": "FERNANDEZ DE LA CRUZ, F., GRAL. AV.",
        "comuna": "Comuna 8",
        "cuit": "33-70817210-9",
        "domicilio": "AV F.F.DE LA CRUZ 3205, CAPITAL FEDERAL",
        "id": 224,
        "lat": -34.6609308383233,
        "long": -58.4448803005485,
        "nombre": "SHELL",
        "razon_social": "GOMCOM SA",
        "tipo_de_boca": "DUAL"
    },
    {
        "barrio": "Belgrano",
        "calle_altura": "3411.0",
        "calle_cruce": "SUPERI",
        "calle_nombre": "JURAMENTO",
        "comuna": "Comuna 13",
        "cuit": "30-70868888-2",
        "domicilio": "JURAMENTO 3411, CAPITAL FEDERAL",
        "id": 225,
        "lat": -34.5681296162712,
        "long": -58.4663395382481,
        "nombre": "SHELL",
        "razon_social": "CRISTINA ISABELLI DE MARTINEZ E HIJOS SH",
        "tipo_de_boca": "LIQUIDOS"
    },
    {
        "barrio": "Constitucion",
        "calle_altura": null,
        "calle_cruce": "LIMA",
        "calle_nombre": "INDEPENDENCIA AV.",
        "comuna": "Comuna 1",
        "cuit": "30-53767985-5",
        "domicilio": "LIMA 835/99, CAPITAL FEDERAL",
        "id": 226,
        "lat": -34.6180641685866,
        "long": -58.3817623308788,
        "nombre": "SHELL",
        "razon_social": "ESTACION LIMA SA",
        "tipo_de_boca": "LIQUIDOS"
    },
    {
        "barrio": "Belgrano",
        "calle_altura": "5414.0",
        "calle_cruce": "SOLDADO DE LA INDEPENDENCIA",
        "calle_nombre": "DEL LIBERTADOR AV.",
        "comuna": "Comuna 13",
        "cuit": "30-51618667-0",
        "domicilio": "AV. LIBERTADOR 5414, CAPITAL FEDERAL",
        "id": 227,
        "lat": -34.5622495969563,
        "long": -58.442988512416704,
        "nombre": "SHELL",
        "razon_social": "DEHEZA SAICFEI N.33",
        "tipo_de_boca": "LIQUIDOS"
    },
    {
        "barrio": "Palermo",
        "calle_altura": "1406.0",
        "calle_cruce": "SCALABRINI ORTIZ, RAUL AV.",
        "calle_nombre": "GORRITI",
        "comuna": "Comuna 14",
        "cuit": "30-61553006-5",
        "domicilio": "AV.RAUL S. ORTIZ 1406, CAPITAL FEDERAL",
        "id": 228,
        "lat": -34.591919351430604,
        "long": -58.42694304875979,
        "nombre": "SHELL",
        "razon_social": "KINKA S.A.",
        "tipo_de_boca": "LIQUIDOS"
    },
    {
        "barrio": "Flores",
        "calle_altura": "2299.0",
        "calle_cruce": "MEMBRILLAR",
        "calle_nombre": "ALBERDI, JUAN BAUTISTA AV.",
        "comuna": "Comuna 7",
        "cuit": "33-70934480-9",
        "domicilio": "AV. JUAN B. ALBERDI 2299, CAPITAL FEDERAL",
        "id": 229,
        "lat": -34.6305300698512,
        "long": -58.4599947192755,
        "nombre": "SHELL",
        "razon_social": "ALBERDI 2299 SRL 2",
        "tipo_de_boca": "DUAL"
    },
    {
        "barrio": "Boedo",
        "calle_altura": "3827.0",
        "calle_cruce": "JANTIN, JUAN BAUTISTA",
        "calle_nombre": "CHICLANA AV.",
        "comuna": "Comuna 5",
        "cuit": "30-66307899-9",
        "domicilio": "AVDA. CHICLANA 3827, BOEDO",
        "id": 111,
        "lat": -34.6385434602086,
        "long": -58.41772599423822,
        "nombre": "SIN MARCA",
        "razon_social": "CHICLANA 3827 S.R.L.",
        "tipo_de_boca": "DUAL"
    },
    {
        "barrio": "Agronomia",
        "calle_altura": "2801.0",
        "calle_cruce": "TERRADA",
        "calle_nombre": "BEIRO, FRANCISCO AV.",
        "comuna": "Comuna 15",
        "cuit": "30-64935548-3",
        "domicilio": "AV. FCO. BEIRO 2801, CAPITAL FEDERAL",
        "id": 110,
        "lat": -34.5942400783363,
        "long": -58.4933108623375,
        "nombre": "SIN MARCA",
        "razon_social": "GNC AGRONOMIA S.A.",
        "tipo_de_boca": "GNC"
    },
    {
        "barrio": "Mataderos",
        "calle_altura": null,
        "calle_cruce": "SAN PEDRO",
        "calle_nombre": "CARDENAS, CNEL. AV.",
        "comuna": "Comuna 9",
        "cuit": "20-04824852-8",
        "domicilio": "CARDENAS 2694 Y SAN PEDRO, MATADEROS",
        "id": 109,
        "lat": -34.6669416940055,
        "long": -58.5020517557344,
        "nombre": "SIN MARCA",
        "razon_social": "ESPINOZA RUBEN EMILIO",
        "tipo_de_boca": null
    },
    {
        "barrio": "Caballito",
        "calle_altura": null,
        "calle_cruce": "NEUQUEN",
        "calle_nombre": "AMBERES",
        "comuna": "Comuna 6",
        "cuit": "20-07727312-4",
        "domicilio": "NEUQUEN 1241 Y PAYSANDU, CABALLITO",
        "id": 108,
        "lat": -34.6157007737496,
        "long": -58.451399250243995,
        "nombre": "SIN MARCA",
        "razon_social": "CASADO DANIEL ANGEL",
        "tipo_de_boca": null
    },
    {
        "barrio": "Balvanera",
        "calle_altura": null,
        "calle_cruce": "URQUIZA, GRAL.",
        "calle_nombre": "BELGRANO AV.",
        "comuna": "Comuna 3",
        "cuit": "30-62405191-9",
        "domicilio": "AVDA. BELGRANO 3144 E/URQUIZA Y 24 DE NOVIEMBRE, BALVANERA",
        "id": 107,
        "lat": -34.6152909657718,
        "long": -58.41031751520579,
        "nombre": "SIN MARCA",
        "razon_social": "POLICIA FEDERAL ARGENTINA (SECCION COMBUSTIBLES)",
        "tipo_de_boca": "LIQUIDOS"
    },
    {
        "barrio": "Villa Crespo",
        "calle_altura": "880.0",
        "calle_cruce": "WARNES AV.",
        "calle_nombre": "THAMES",
        "comuna": "Comuna 15",
        "cuit": "30-70859181-1",
        "domicilio": "AVDA. WARNES 880, VILLA CRESPO - C.A.B.A.",
        "id": 106,
        "lat": -34.6002204331651,
        "long": -58.448869032419005,
        "nombre": "SIN MARCA",
        "razon_social": "COMBUSTIBLES WARNES S.R.L.",
        "tipo_de_boca": "LIQUIDOS"
    },
    {
        "barrio": "Recoleta",
        "calle_altura": null,
        "calle_cruce": "CALLE 13 (NO OFICIAL)",
        "calle_nombre": "CALLE 12 (NO OFICIAL)",
        "comuna": "Comuna 2",
        "cuit": "30-70802799-1",
        "domicilio": "JUNIN S/N E/ CASTILLO Y RAFAEL OBLIGADO (DARSENA F), PUERTO - C.A.B.A.",
        "id": 105,
        "lat": -34.5777002315463,
        "long": -58.385166186394216,
        "nombre": "SIN MARCA",
        "razon_social": "DEL BUEN PUERTO S.R.L.",
        "tipo_de_boca": "LIQUIDOS"
    },
    {
        "barrio": "Villa Del Parque",
        "calle_altura": null,
        "calle_cruce": "CARACAS",
        "calle_nombre": "ALVAREZ JONTE",
        "comuna": "Comuna 11",
        "cuit": "30-69544390-7",
        "domicilio": "CARACAS 2319 Y AVDA. ALVARES JONTE, PATERNAL - C.A.B.A.",
        "id": 104,
        "lat": -34.6058204323322,
        "long": -58.4750201749,
        "nombre": "SIN MARCA",
        "razon_social": "NAF GAS S.A.",
        "tipo_de_boca": "DUAL"
    },
    {
        "barrio": "Villa Devoto",
        "calle_altura": null,
        "calle_cruce": "QUEVEDO",
        "calle_nombre": "BEIRO, FRANCISCO AV.",
        "comuna": "Comuna 11",
        "cuit": "33-64545312-9",
        "domicilio": "AVENIDA FRANCISCO BEIRO ENTRE QUEVEDO Y DESAGUADERO, CAPITAL FEDERAL",
        "id": 103,
        "lat": -34.610100311848,
        "long": -58.5192520699312,
        "nombre": "SIN MARCA",
        "razon_social": "INDEGAS SA",
        "tipo_de_boca": "GNC"
    },
    {
        "barrio": "Villa Ortuzar",
        "calle_altura": null,
        "calle_cruce": "HEREDIA",
        "calle_nombre": "DEL CAMPO AV.",
        "comuna": "Comuna 15",
        "cuit": "27-09999306-0",
        "domicilio": "HEREDIA 207 Y DEL CAMPO, CHACARITA - C.A.B.A.",
        "id": 102,
        "lat": -34.5894500940309,
        "long": -58.4679397587856,
        "nombre": "SIN MARCA",
        "razon_social": "RIVELLO NILDA EUSEBIA",
        "tipo_de_boca": null
    },
    {
        "barrio": "Nu\\u00f1ez",
        "calle_altura": null,
        "calle_cruce": "DEL LIBERTADOR AV.",
        "calle_nombre": "ARIAS",
        "comuna": "Comuna 13",
        "cuit": "30-68242004-5",
        "domicilio": "AVDA. DEL LIBERTADOR 8404 Y ARIAS, NUÑEZ",
        "id": 101,
        "lat": -34.538318941477996,
        "long": -58.4656092936952,
        "nombre": "SIN MARCA",
        "razon_social": "PEGO S.A.",
        "tipo_de_boca": null
    },
    {
        "barrio": "Villa Luro",
        "calle_altura": null,
        "calle_cruce": "DUPUY",
        "calle_nombre": "CORVALAN",
        "comuna": "Comuna 10",
        "cuit": "30-68369127-1",
        "domicilio": "AVDA. RIVADAVIA 10301 Y DUPUY, VILLA LURO - C.A.B.A.",
        "id": 100,
        "lat": -34.6387310168051,
        "long": -58.508741833836496,
        "nombre": "SIN MARCA",
        "razon_social": "ORTFRE S.R.L.",
        "tipo_de_boca": "LIQUIDOS"
    },
    {
        "barrio": "Constitucion",
        "calle_altura": null,
        "calle_cruce": "TACUARI",
        "calle_nombre": "ESTADOS UNIDOS",
        "comuna": "Comuna 1",
        "cuit": "20-17254687-1",
        "domicilio": "TACUARI 885 Y ESTADOS UNIDOS, CAPITAL FEDERAL",
        "id": 99,
        "lat": -34.6183511892693,
        "long": -58.3788662107895,
        "nombre": "SIN MARCA",
        "razon_social": "LUPONE RICARDO DANIEL",
        "tipo_de_boca": "LIQUIDOS"
    },
    {
        "barrio": "Boedo",
        "calle_altura": null,
        "calle_cruce": "LA PLATA AV.",
        "calle_nombre": "INCLAN",
        "comuna": "Comuna 5",
        "cuit": "30-70807233-4",
        "domicilio": "AV. LA PLATA 1614 ESQ. INCLAN, CAPITAL FEDERAL",
        "id": 113,
        "lat": -34.6338513179599,
        "long": -58.4248942629212,
        "nombre": "SOL",
        "razon_social": "CASAMASSIMA Y CAVALLIERI S.H.",
        "tipo_de_boca": "LIQUIDOS"
    },
    {
        "barrio": "Balvanera",
        "calle_altura": "658.0",
        "calle_cruce": "RINCON",
        "calle_nombre": "CHILE",
        "comuna": "Comuna 3",
        "cuit": "30-53776273-6",
        "domicilio": "RINCON 658, BALVANERA",
        "id": 112,
        "lat": -34.6166710668915,
        "long": -58.3960769245871,
        "nombre": "SOL",
        "razon_social": "GRAN GARAGE RINCON 658 S.R.L.",
        "tipo_de_boca": "LIQUIDOS"
    },
    {
        "barrio": "Villa Devoto",
        "calle_altura": null,
        "calle_cruce": "PAZ, GRAL. AV.",
        "calle_nombre": "GRIVEO",
        "comuna": "Comuna 11",
        "cuit": "27-12743362-9",
        "domicilio": "AVENIDA GENERAL JOSE MARIA PAZ 6850 Y AVENIDA GENERAL PAZ, CAPITAL FEDERAL",
        "id": 83,
        "lat": -34.5946699536668,
        "long": -58.5205720140835,
        "nombre": "YPF",
        "razon_social": "MARIA CRISTINA CORTTI",
        "tipo_de_boca": "LIQUIDOS"
    },
    {
        "barrio": "Flores",
        "calle_altura": null,
        "calle_cruce": "MARTI, JOSE",
        "calle_nombre": "HELGUERA",
        "comuna": "Comuna 7",
        "cuit": "30-50014329-7",
        "domicilio": "AVENIDA BERNARDINO RIVADAVIA 7530 Y JOSE MARTI, CAPITAL FEDERAL",
        "id": 82,
        "lat": -34.6315510348823,
        "long": -58.471840226101705,
        "nombre": "YPF",
        "razon_social": "ACA FLORES",
        "tipo_de_boca": "DUAL"
    },
    {
        "barrio": "Palermo",
        "calle_altura": null,
        "calle_cruce": "NICARAGUA",
        "calle_nombre": "JUSTO, JUAN B. AV.",
        "comuna": "Comuna 14",
        "cuit": "30-67877449-5",
        "domicilio": "AVENIDA J B JUSTO 1215 Y NICARAGUA, CAPITAL FEDERAL",
        "id": 81,
        "lat": -34.5831101249381,
        "long": -58.43219820715589,
        "nombre": "YPF",
        "razon_social": "OPESSA NICARAGUA",
        "tipo_de_boca": "LIQUIDOS"
    },
    {
        "barrio": "Villa Lugano",
        "calle_altura": null,
        "calle_cruce": "ESCALADA AV.",
        "calle_nombre": "CASTA\\u00d1ARES AV.",
        "comuna": "Comuna 8",
        "cuit": "33-70940148-9",
        "domicilio": "GENERAL M DE ESCALADA 2951 Y ARTIGAS, CAPITAL FEDERAL",
        "id": 80,
        "lat": -34.6651318118201,
        "long": -58.4697803813015,
        "nombre": "YPF",
        "razon_social": "CALITRI F L Y NIETO A H SH",
        "tipo_de_boca": "LIQUIDOS"
    },
    {
        "barrio": "Flores",
        "calle_altura": null,
        "calle_cruce": "MORENO, PERITO AV.",
        "calle_nombre": "ACOSTA, MARIANO",
        "comuna": "Comuna 7",
        "cuit": "30-65423606-9",
        "domicilio": "CAMBIESES 1780 Y FRANK BROWN, CAPITAL FEDERAL",
        "id": 79,
        "lat": -34.6498715028608,
        "long": -58.4617299317022,
        "nombre": "YPF",
        "razon_social": "SUPER SERVICIOS SA",
        "tipo_de_boca": "LIQUIDOS"
    },
    {
        "barrio": "Constitucion",
        "calle_altura": null,
        "calle_cruce": "SAN JOSE",
        "calle_nombre": "BRASIL",
        "comuna": "Comuna 1",
        "cuit": "30-64426361-0",
        "domicilio": "BRASIL Y SAN JOSE, CAPITAL FEDERAL",
        "id": 78,
        "lat": -34.6282613830027,
        "long": -58.385516562064105,
        "nombre": "YPF",
        "razon_social": "SAN-BRA",
        "tipo_de_boca": "GNC"
    },
    {
        "barrio": "Caballito",
        "calle_altura": null,
        "calle_cruce": "SAN SEBASTIAN",
        "calle_nombre": "AVELLANEDA",
        "comuna": "Comuna 6",
        "cuit": "30-64189440-7",
        "domicilio": "AVENIDA AVELLANEDA 250 ENTRE CAMPICHUELO Y OTAMENDI, CAPITAL FEDERAL",
        "id": 77,
        "lat": -34.6126807892654,
        "long": -58.4341985033939,
        "nombre": "YPF",
        "razon_social": "AVEGAS SA",
        "tipo_de_boca": "GNC"
    },
    {
        "barrio": "Villa Lugano",
        "calle_altura": null,
        "calle_cruce": "ZELARRAYAN",
        "calle_nombre": "ARGENTINA AV.",
        "comuna": "Comuna 8",
        "cuit": "30-70798373-2",
        "domicilio": "JUAN ZELARRAYAN 5530 Y AVENIDA ARGENTINA, CAPITAL FEDERAL",
        "id": 76,
        "lat": -34.6730519526957,
        "long": -58.4779207819039,
        "nombre": "YPF",
        "razon_social": "NAFPUR XXI SA",
        "tipo_de_boca": "GNC"
    },
    {
        "barrio": "Balvanera",
        "calle_altura": null,
        "calle_cruce": "ESPARZA",
        "calle_nombre": "AGUERO",
        "comuna": "Comuna 3",
        "cuit": "30-67877449-5",
        "domicilio": "AVENIDA RIVADAVIA 3341 Y AGUERO, CAPITAL FEDERAL",
        "id": 19,
        "lat": -34.6104608390953,
        "long": -58.41368762272701,
        "nombre": "YPF",
        "razon_social": "OPESSA ACA ONCE",
        "tipo_de_boca": "LIQUIDOS"
    },
    {
        "barrio": "Saavedra",
        "calle_altura": null,
        "calle_cruce": "GALVAN",
        "calle_nombre": "BALBIN, RICARDO, DR. AV.",
        "comuna": "Comuna 12",
        "cuit": "30-53778132-3",
        "domicilio": "AVENIDA DR RICARDO BALBIN 4491 Y CORREA, CAPITAL FEDERAL",
        "id": 75,
        "lat": -34.5550291730296,
        "long": -58.495840686674214,
        "nombre": "YPF",
        "razon_social": "ESTACION DE SERVICIO NORTENA SRL",
        "tipo_de_boca": "DUAL"
    },
    {
        "barrio": "Flores",
        "calle_altura": null,
        "calle_cruce": "ESTADO PLURINACIONAL DE BOLIVIA",
        "calle_nombre": "AVELLANEDA AV.",
        "comuna": "Comuna 7",
        "cuit": "30-64181927-8",
        "domicilio": "AVENIDA DR NICOLAS AVELLANEDA ENTRE CONDARCO Y BOLIVIA, CAPITAL FEDERAL",
        "id": 74,
        "lat": -34.6254809147282,
        "long": -58.46811002511151,
        "nombre": "YPF",
        "razon_social": "GNC AVELLANEDA",
        "tipo_de_boca": "DUAL"
    },
    {
        "barrio": "Villa Lugano",
        "calle_altura": null,
        "calle_cruce": "LARRAZABAL",
        "calle_nombre": "DELLEPIANE, LUIS, TTE. GRAL.",
        "comuna": "Comuna 8",
        "cuit": "33-60872427-9",
        "domicilio": "LARRAZABAL Y ZELARRAYAN, CAPITAL FEDERAL",
        "id": 73,
        "lat": -34.6734519689853,
        "long": -58.4764707236135,
        "nombre": "YPF",
        "razon_social": "NAFPUR SA",
        "tipo_de_boca": "DUAL"
    },
    {
        "barrio": "Caballito",
        "calle_altura": null,
        "calle_cruce": "SENILLOSA",
        "calle_nombre": "ALBERDI, JUAN BAUTISTA AV.",
        "comuna": "Comuna 6",
        "cuit": "30-67790900-1",
        "domicilio": "AVENIDA ALBERDI 100 Y SENILLOSA, CAPITAL FEDERAL",
        "id": 72,
        "lat": -34.6224210367243,
        "long": -58.4290483561094,
        "nombre": "YPF",
        "razon_social": "RERIFE SA",
        "tipo_de_boca": "LIQUIDOS"
    },
    {
        "barrio": "Velez Sarsfield",
        "calle_altura": null,
        "calle_cruce": "CORRO, MIGUEL C. DEL, CANONIGO AV.",
        "calle_nombre": "ARANGUREN, JUAN F., DR.",
        "comuna": "Comuna 10",
        "cuit": "33-55274485-9",
        "domicilio": "AVENIDA CANONIGO M DEL CORRO 501 Y ARANGUREN, CAPITAL FEDERAL",
        "id": 71,
        "lat": -34.6328409336327,
        "long": -58.498361353617106,
        "nombre": "YPF",
        "razon_social": "CORRO NORTE SA",
        "tipo_de_boca": "LIQUIDOS"
    },
    {
        "barrio": "Villa Crespo",
        "calle_altura": null,
        "calle_cruce": "WARNES AV.",
        "calle_nombre": "MARECHAL, LEOPOLDO",
        "comuna": "Comuna 15",
        "cuit": "30-59730428-1",
        "domicilio": "AVENIDA CNEL IGNACIO WARNES 236 Y CAMPICHUELO, CAPITAL FEDERAL",
        "id": 70,
        "lat": -34.6030305360416,
        "long": -58.4409587191568,
        "nombre": "YPF",
        "razon_social": "NOCEDA SA",
        "tipo_de_boca": "DUAL"
    },
    {
        "barrio": "Floresta",
        "calle_altura": null,
        "calle_cruce": "SEGUROLA AV.",
        "calle_nombre": "JUSTO, JUAN B. AV.",
        "comuna": "Comuna 10",
        "cuit": "30-68692984-8",
        "domicilio": "AVENIDA DR JUAN BAUTISTA JUSTO 7099 Y AVENIDA SEGUROLA, CAPITAL FEDERAL",
        "id": 69,
        "lat": -34.6267308305213,
        "long": -58.49100099920671,
        "nombre": "YPF",
        "razon_social": "DARSISA SA",
        "tipo_de_boca": "LIQUIDOS"
    },
    {
        "barrio": "Villa Del Parque",
        "calle_altura": null,
        "calle_cruce": "NOGOYA",
        "calle_nombre": "LAMARCA, EMILIO",
        "comuna": "Comuna 11",
        "cuit": "33-52022773-9",
        "domicilio": "NOGOYA 3641 ENTRE EMILIO LAMARCA Y CONCORDIA, CAPITAL FEDERAL",
        "id": 68,
        "lat": -34.6062803291439,
        "long": -58.498101150984795,
        "nombre": "YPF",
        "razon_social": "GOPA SACIF Y A",
        "tipo_de_boca": "LIQUIDOS"
    },
    {
        "barrio": "Villa Del Parque",
        "calle_altura": null,
        "calle_cruce": "CONDARCO",
        "calle_nombre": "ALVAREZ JONTE AV.",
        "comuna": "Comuna 11",
        "cuit": "30-64629791-1",
        "domicilio": "AVENIDA ANTONIO ALVAREZ JONTE 2695 Y CONDARCO, CAPITAL FEDERAL",
        "id": 67,
        "lat": -34.6079504543686,
        "long": -58.4804104174218,
        "nombre": "YPF",
        "razon_social": "FUENTE DE PETROLEO SA",
        "tipo_de_boca": "LIQUIDOS"
    },
    {
        "barrio": "Villa Gral. Mitre",
        "calle_altura": null,
        "calle_cruce": "NIZA",
        "calle_nombre": "JUSTO, JUAN B. AV.",
        "comuna": "Comuna 11",
        "cuit": "30-64357490-6",
        "domicilio": "AVENIDA DR JUAN BAUTISTA JUSTO 4611, CAPITAL FEDERAL",
        "id": 66,
        "lat": -34.608960552667,
        "long": -58.4651097797667,
        "nombre": "YPF",
        "razon_social": "ARGAS SA",
        "tipo_de_boca": "GNC"
    },
    {
        "barrio": "Versalles",
        "calle_altura": null,
        "calle_cruce": "AUTOPISTA PERITO MORENO",
        "calle_nombre": "PAZ, GRAL. AV.",
        "comuna": "Comuna 10",
        "cuit": "30-62009805-8",
        "domicilio": "AVENIDA DR JUAN BAUTISTA JUSTO 9750 ENTRE GHANA Y CUZCO, CAPITAL FEDERAL",
        "id": 65,
        "lat": -34.6346408302503,
        "long": -58.527602599412,
        "nombre": "YPF",
        "razon_social": "GASOLEO SA",
        "tipo_de_boca": "LIQUIDOS"
    },
    {
        "barrio": "Palermo",
        "calle_altura": null,
        "calle_cruce": "OLLEROS AV.",
        "calle_nombre": "DEL LIBERTADOR AV.",
        "comuna": "Comuna 14",
        "cuit": "30-65423606-9",
        "domicilio": "AVENIDA DEL LIBERTADOR 5002 Y OLLEROS, CAPITAL FEDERAL",
        "id": 64,
        "lat": -34.563639657119396,
        "long": -58.4371682771792,
        "nombre": "YPF",
        "razon_social": "SUPER SERVICIO SA",
        "tipo_de_boca": "LIQUIDOS"
    },
    {
        "barrio": "Palermo",
        "calle_altura": null,
        "calle_cruce": "PRINGLES",
        "calle_nombre": "CORDOBA AV.",
        "comuna": "Comuna 14",
        "cuit": "30-67877449-5",
        "domicilio": "AVENIDA CORDOBA 4201 Y PRINGLES, CAPITAL FEDERAL",
        "id": 63,
        "lat": -34.5962304524686,
        "long": -58.42637805581821,
        "nombre": "YPF",
        "razon_social": "OPESSA PRINGLES",
        "tipo_de_boca": "LIQUIDOS"
    },
    {
        "barrio": "Parque Chacabuco",
        "calle_altura": null,
        "calle_cruce": "MORENO, JOSE MARIA AV.",
        "calle_nombre": "DIAZ, AVELINO",
        "comuna": "Comuna 7",
        "cuit": "30-68281630-5",
        "domicilio": "AVENIDA JOSE M MORENO 1485 Y AVELLINO DIAZ, CAPITAL FEDERAL",
        "id": 62,
        "lat": -34.6359913293807,
        "long": -58.4325286002592,
        "nombre": "YPF",
        "razon_social": "PSF UNISERVICIOS",
        "tipo_de_boca": "LIQUIDOS"
    },
    {
        "barrio": "Constitucion",
        "calle_altura": null,
        "calle_cruce": "SOLIS",
        "calle_nombre": "SAN JUAN AV.",
        "comuna": "Comuna 1",
        "cuit": "30-54025916-6",
        "domicilio": "AVENIDA SAN JUAN 1701 Y SOLIS, CAPITAL FEDERAL",
        "id": 61,
        "lat": -34.6224512285013,
        "long": -58.38999670949389,
        "nombre": "YPF",
        "razon_social": "SAN JUAN Y SOLIS ALVAREZ Y DI LEVA SA",
        "tipo_de_boca": "LIQUIDOS"
    },
    {
        "barrio": "Parque Patricios",
        "calle_altura": null,
        "calle_cruce": "MONTESQUIEU",
        "calle_nombre": "ALCORTA, AMANCIO AV.",
        "comuna": "Comuna 4",
        "cuit": "30-67918597-3",
        "domicilio": "AVENIDA AMANCIO ALCORTA 2711 Y MONTESQUIEU, CAPITAL FEDERAL",
        "id": 60,
        "lat": -34.6439016723885,
        "long": -58.3993772586347,
        "nombre": "YPF",
        "razon_social": "MADRO SA",
        "tipo_de_boca": "LIQUIDOS"
    },
    {
        "barrio": "Caballito",
        "calle_altura": null,
        "calle_cruce": "COLPAYO",
        "calle_nombre": "AVELLANEDA",
        "comuna": "Comuna 6",
        "cuit": "30-57836777-9",
        "domicilio": "COLPAYO 406 Y AVELLANEDA, CAPITAL FEDERAL",
        "id": 59,
        "lat": -34.6158308225162,
        "long": -58.442068857812785,
        "nombre": "YPF",
        "razon_social": "KLIVE SA",
        "tipo_de_boca": "LIQUIDOS"
    },
    {
        "barrio": "Barracas",
        "calle_altura": null,
        "calle_cruce": "VELEZ SARSFIELD AV.",
        "calle_nombre": "TOLL",
        "comuna": "Comuna 4",
        "cuit": "30-67877449-5",
        "domicilio": "AVENIDA DR VELEZ SARSFIELD 850 Y TOLL, CAPITAL FEDERAL",
        "id": 58,
        "lat": -34.6449017448586,
        "long": -58.389226837572785,
        "nombre": "YPF",
        "razon_social": "OPESSA ACA VELEZ SARSFIELD",
        "tipo_de_boca": "LIQUIDOS"
    },
    {
        "barrio": "Nueva Pompeya",
        "calle_altura": null,
        "calle_cruce": "PEPIRI",
        "calle_nombre": "ALCORTA, AMANCIO AV.",
        "comuna": "Comuna 4",
        "cuit": "30-62798060-0",
        "domicilio": "AVENIDA AMANCIO ALCORTA 3415 Y PEPIRI, CAPITAL FEDERAL",
        "id": 57,
        "lat": -34.6516818095335,
        "long": -58.40766766413761,
        "nombre": "YPF",
        "razon_social": "GNC POMPEYA SRL",
        "tipo_de_boca": "GNC"
    },
    {
        "barrio": "Mataderos",
        "calle_altura": null,
        "calle_cruce": "POLA",
        "calle_nombre": "ALBERDI, JUAN BAUTISTA AV.",
        "comuna": "Comuna 9",
        "cuit": "30-64432049-5",
        "domicilio": "AVENIDA ALBERDI ENTRE POLA Y FONROUGE, CAPITAL FEDERAL",
        "id": 56,
        "lat": -34.6502313188746,
        "long": -58.500731579202785,
        "nombre": "YPF",
        "razon_social": "ALBERDI GAS SA",
        "tipo_de_boca": "DUAL"
    },
    {
        "barrio": "Parque Avellaneda",
        "calle_altura": null,
        "calle_cruce": "MEDINA",
        "calle_nombre": "ALBERDI, JUAN BAUTISTA AV.",
        "comuna": "Comuna 9",
        "cuit": "30-70207150-6",
        "domicilio": "AVENIDA ALBERDI 4402 Y MEDINA, CAPITAL FEDERAL",
        "id": 55,
        "lat": -34.6415011831633,
        "long": -58.4878409725463,
        "nombre": "YPF",
        "razon_social": "SOLMAY SRL",
        "tipo_de_boca": "LIQUIDOS"
    },
    {
        "barrio": "Caballito",
        "calle_altura": null,
        "calle_cruce": "RIO DE JANEIRO",
        "calle_nombre": "ESCRIBANO",
        "comuna": "Comuna 6",
        "cuit": "30-53845687-6",
        "domicilio": "RIO DE JANEIRO 464 Y ESCRIBANO, CAPITAL FEDERAL",
        "id": 54,
        "lat": -34.6101907511971,
        "long": -58.430378324481495,
        "nombre": "YPF",
        "razon_social": "RIO DE JANEIRO SA",
        "tipo_de_boca": "LIQUIDOS"
    },
    {
        "barrio": "Villa Santa Rita",
        "calle_altura": null,
        "calle_cruce": "LLAVALLOL",
        "calle_nombre": "ALVAREZ JONTE AV.",
        "comuna": "Comuna 11",
        "cuit": "33-65333525-9",
        "domicilio": "AVENIDA ANTONIO ALVAREZ JONTE 3386 Y LLAVALLOL, CAPITAL FEDERAL",
        "id": 53,
        "lat": -34.6112904838341,
        "long": -58.4898908410705,
        "nombre": "YPF",
        "razon_social": "JONTE 3386 SRL",
        "tipo_de_boca": "LIQUIDOS"
    },
    {
        "barrio": "Villa Lugano",
        "calle_altura": null,
        "calle_cruce": "MURGUIONDO",
        "calle_nombre": "PERON, EVA AV.",
        "comuna": "Comuna 8",
        "cuit": "30-71213502-2",
        "domicilio": "AVENIDA EVA PERON 6102 Y MURGUIONDO, CAPITAL FEDERAL",
        "id": 52,
        "lat": -34.6655317165441,
        "long": -58.49096127770989,
        "nombre": "YPF",
        "razon_social": "DESTINATUM S.A.",
        "tipo_de_boca": "LIQUIDOS"
    },
    {
        "barrio": "Nueva Pompeya",
        "calle_altura": null,
        "calle_cruce": "FOURNIER",
        "calle_nombre": "FERNANDEZ DE LA CRUZ, F., GRAL. AV.",
        "comuna": "Comuna 4",
        "cuit": "30-64483733-1",
        "domicilio": "AVENIDA FERNANDEZ DE LA CRUZ Y FOURNIER, CAPITAL FEDERAL",
        "id": 51,
        "lat": -34.6435315467054,
        "long": -58.4233182659072,
        "nombre": "YPF",
        "razon_social": "POMPEYA GAS SA",
        "tipo_de_boca": "GNC"
    },
    {
        "barrio": "Villa Urquiza",
        "calle_altura": null,
        "calle_cruce": "PLAZA",
        "calle_nombre": "LE BRETON, TOMAS A.",
        "comuna": "Comuna 12",
        "cuit": "30-65721366-3",
        "domicilio": "CONGRESO 4008 Y PLAZA, CAPITAL FEDERAL",
        "id": 50,
        "lat": -34.5643294647407,
        "long": -58.4795700682695,
        "nombre": "YPF",
        "razon_social": "LE BRETON SRL",
        "tipo_de_boca": "LIQUIDOS"
    },
    {
        "barrio": "Liniers",
        "calle_altura": null,
        "calle_cruce": "SCHMIDL, ULRICO",
        "calle_nombre": "LARRAZABAL AV.",
        "comuna": "Comuna 9",
        "cuit": "30-55714439-7",
        "domicilio": "AVENIDA CORONEL M LARRAZABAL 801 Y SCHMIDL, CAPITAL FEDERAL",
        "id": 49,
        "lat": -34.647131214123,
        "long": -58.507611846930104,
        "nombre": "YPF",
        "razon_social": "GOMEZ DE MARTINEZ S Y/U OTRAS",
        "tipo_de_boca": "LIQUIDOS"
    },
    {
        "barrio": "Balvanera",
        "calle_altura": null,
        "calle_cruce": "JUJUY AV.",
        "calle_nombre": "INDEPENDENCIA AV.",
        "comuna": "Comuna 3",
        "cuit": "30-51580021-9",
        "domicilio": "AVENIDA INDEPENDENCIA 2701 Y JUJUY, CAPITAL FEDERAL",
        "id": 48,
        "lat": -34.618711075503995,
        "long": -58.40383726642629,
        "nombre": "YPF",
        "razon_social": "INCAT SRL",
        "tipo_de_boca": "DUAL"
    },
    {
        "barrio": "Mataderos",
        "calle_altura": null,
        "calle_cruce": "PAZ, GRAL. AV.",
        "calle_nombre": "ALBERDI, JUAN BAUTISTA AV.",
        "comuna": "Comuna 9",
        "cuit": "33-70744629-9",
        "domicilio": "AVENIDA ALBERDI 7500 Y GENERAL PAZ, CAPITAL FEDERAL",
        "id": 47,
        "lat": -34.6620915084822,
        "long": -58.5171723583987,
        "nombre": "YPF",
        "razon_social": "LA ROTONDA SH",
        "tipo_de_boca": "DUAL"
    },
    {
        "barrio": "Villa Gral. Mitre",
        "calle_altura": null,
        "calle_cruce": "BELAUSTEGUI, LUIS, DR.",
        "calle_nombre": "ARTIGAS, JOSE GERVASIO, GRAL.",
        "comuna": "Comuna 11",
        "cuit": "30-51870762-7",
        "domicilio": "AVENIDA DR JUAN BAUTISTA JUSTO 5315 Y BELAUSTEGUI, CAPITAL FEDERAL",
        "id": 46,
        "lat": -34.614010630746996,
        "long": -58.4726501339458,
        "nombre": "YPF",
        "razon_social": "PROODOS SA",
        "tipo_de_boca": "LIQUIDOS"
    },
    {
        "barrio": "Barracas",
        "calle_altura": null,
        "calle_cruce": "MONTES DE OCA, MANUEL AV.",
        "calle_nombre": "GARCIA, MARTIN AV.",
        "comuna": "Comuna 4",
        "cuit": "30-50014329-7",
        "domicilio": "AVENIDA MANUEL AUGUSTO MONTES DE OCA 492 Y AVENIDA MARTIN GARCIA, CAPITAL FEDERAL",
        "id": 45,
        "lat": -34.634021564406,
        "long": -58.375296172107106,
        "nombre": "YPF",
        "razon_social": "ACA BARRACAS",
        "tipo_de_boca": "LIQUIDOS"
    },
    {
        "barrio": "Caballito",
        "calle_altura": null,
        "calle_cruce": "GAONA AV.",
        "calle_nombre": "GAINZA, MARTIN DE, GRAL.",
        "comuna": "Comuna 6",
        "cuit": "30-67877449-5",
        "domicilio": "AVENIDA GAONA 1204 Y MARTIN DE GAINZA, CAPITAL FEDERAL",
        "id": 44,
        "lat": -34.6080606218401,
        "long": -58.4468490035503,
        "nombre": "YPF",
        "razon_social": "OPESSA ACA CABALLITO",
        "tipo_de_boca": "LIQUIDOS"
    },
    {
        "barrio": "Saavedra",
        "calle_altura": null,
        "calle_cruce": "LARRALDE, CRISOLOGO AV.",
        "calle_nombre": "MOLDES",
        "comuna": "Comuna 12",
        "cuit": "30-64452904-1",
        "domicilio": "AVENIDA CRISOLOGO LARRALDE Y MOLDES, CAPITAL FEDERAL",
        "id": 43,
        "lat": -34.5503091880363,
        "long": -58.4709466044208,
        "nombre": "YPF",
        "razon_social": "AMBAS SA",
        "tipo_de_boca": "GNC"
    },
    {
        "barrio": "San Cristobal",
        "calle_altura": null,
        "calle_cruce": "SAN JUAN AV.",
        "calle_nombre": "DEAN FUNES",
        "comuna": "Comuna 3",
        "cuit": "30-69613100-3",
        "domicilio": "AVENIDA SAN JUAN 2901 Y DEAN FUNES, CAPITAL FEDERAL",
        "id": 42,
        "lat": -34.62408118729,
        "long": -58.406037397640894,
        "nombre": "YPF",
        "razon_social": "PETROLFE SA",
        "tipo_de_boca": "LIQUIDOS"
    },
    {
        "barrio": "Paternal",
        "calle_altura": null,
        "calle_cruce": "TRELLES, MANUEL R. AV.",
        "calle_nombre": "CUCHA CUCHA",
        "comuna": "Comuna 15",
        "cuit": "30-57223430-0",
        "domicilio": "AVENIDA TTE GRAL DONATO ALVAREZ 2290 Y MANUEL RICARDO TRELLES, CAPITAL FEDERAL",
        "id": 41,
        "lat": -34.600070342853996,
        "long": -58.4665597769621,
        "nombre": "YPF",
        "razon_social": "NUESTRO SOSIEGO SA",
        "tipo_de_boca": "LIQUIDOS"
    },
    {
        "barrio": "Villa Luro",
        "calle_altura": null,
        "calle_cruce": "MIRANDA",
        "calle_nombre": "LOPE DE VEGA AV.",
        "comuna": "Comuna 10",
        "cuit": "30-60131698-2",
        "domicilio": "AVENIDA LOPE DE VEGA 1502 Y MIRANDA, CAPITAL FEDERAL",
        "id": 40,
        "lat": -34.6260607230232,
        "long": -58.5096917823078,
        "nombre": "YPF",
        "razon_social": "MAURER & GRUMELLI SRL",
        "tipo_de_boca": "LIQUIDOS"
    },
    {
        "barrio": "Belgrano",
        "calle_altura": null,
        "calle_cruce": "FIGUEROA ALCORTA, PRES. AV.",
        "calle_nombre": "ECHEVERRIA",
        "comuna": "Comuna 13",
        "cuit": "30-67877449-5",
        "domicilio": "AVENIDA FIGUEROA ALCORTA 6608 Y ECHEVERRIA, CAPITAL FEDERAL",
        "id": 39,
        "lat": -34.5514993797378,
        "long": -58.4373781991578,
        "nombre": "YPF",
        "razon_social": "OPESSA ECHEVERRIA",
        "tipo_de_boca": "LIQUIDOS"
    },
    {
        "barrio": "Villa Pueyrredon",
        "calle_altura": "6070.0",
        "calle_cruce": "PIRAN",
        "calle_nombre": "DE LOS CONSTITUYENTES AV.",
        "comuna": "Comuna 12",
        "cuit": "30-67877449-5",
        "domicilio": "AVENIDA DE LOS CONSTITUYENTES 6070, CAPITAL FEDERAL",
        "id": 38,
        "lat": -34.571549494450196,
        "long": -58.50692127225822,
        "nombre": "YPF",
        "razon_social": "OPESSA WALL MART CONSTITUYENTES",
        "tipo_de_boca": "LIQUIDOS"
    },
    {
        "barrio": "Villa Crespo",
        "calle_altura": null,
        "calle_cruce": "RODRIGUEZ, MANUEL A., GENERAL",
        "calle_nombre": "JUSTO, JUAN B. AV.",
        "comuna": "Comuna 15",
        "cuit": "30-70791830-2",
        "domicilio": "AVENIDA JUAN B JUSTO 3508 Y GENERAL MARTIN RODRIGUEZ, CAPITAL FEDERAL",
        "id": 37,
        "lat": -34.6017404422408,
        "long": -58.454079262939,
        "nombre": "YPF",
        "razon_social": "UBR SA",
        "tipo_de_boca": "LIQUIDOS"
    },
    {
        "barrio": "Chacarita",
        "calle_altura": null,
        "calle_cruce": "FRAGA",
        "calle_nombre": "ELCANO AV.",
        "comuna": "Comuna 15",
        "cuit": "30-53738787-0",
        "domicilio": "AVENIDA SEBASTIAN ELCANO 4000 Y FRAGA, CAPITAL FEDERAL",
        "id": 36,
        "lat": -34.5827799795957,
        "long": -58.4602993889334,
        "nombre": "YPF",
        "razon_social": "BOYACA CISA",
        "tipo_de_boca": "LIQUIDOS"
    },
    {
        "barrio": "Villa Lugano",
        "calle_altura": null,
        "calle_cruce": "ZELARRAYAN",
        "calle_nombre": "OLIDEN",
        "comuna": "Comuna 8",
        "cuit": "30-70798373-2",
        "domicilio": "ARGENTINA 5620 Y ZELARRAYAN, CAPITAL FEDERAL",
        "id": 34,
        "lat": -34.6730119493165,
        "long": -58.478420802711106,
        "nombre": "YPF",
        "razon_social": "NAFPUR XXI SA",
        "tipo_de_boca": "LIQUIDOS"
    },
    {
        "barrio": "Villa Real",
        "calle_altura": null,
        "calle_cruce": "PAZ, GRAL. AV.",
        "calle_nombre": "BEIRO, FRANCISCO AV.",
        "comuna": "Comuna 10",
        "cuit": "30-67877449-5",
        "domicilio": "AVENIDA FRANCISCO BEIRO 5804 Y AV. GRAL. PAZ, CAPITAL FEDERAL",
        "id": 33,
        "lat": -34.618130440854394,
        "long": -58.5301925890779,
        "nombre": "YPF",
        "razon_social": "OPESSA BEIRO",
        "tipo_de_boca": "LIQUIDOS"
    },
    {
        "barrio": "Caballito",
        "calle_altura": null,
        "calle_cruce": "NEUQUEN",
        "calle_nombre": "ESPINOSA",
        "comuna": "Comuna 6",
        "cuit": "33-68843627-9",
        "domicilio": "GERVASIO ESPINOSA 605 Y NEUQUEN, CAPITAL FEDERAL",
        "id": 32,
        "lat": -34.6156307835945,
        "long": -58.4490691515069,
        "nombre": "YPF",
        "razon_social": "UNENS SRL",
        "tipo_de_boca": "LIQUIDOS"
    },
    {
        "barrio": "Saavedra",
        "calle_altura": null,
        "calle_cruce": "SALTO",
        "calle_nombre": "PAZ, GRAL. AV.",
        "comuna": "Comuna 12",
        "cuit": "30-65029699-7",
        "domicilio": "AVENIDA DR RICARDO BALBIN 5041 Y SALTO, CAPITAL FEDERAL",
        "id": 31,
        "lat": -34.5507590586932,
        "long": -58.4993308029325,
        "nombre": "YPF",
        "razon_social": "GASPARQUE SA",
        "tipo_de_boca": "DUAL"
    },
    {
        "barrio": "Palermo",
        "calle_altura": null,
        "calle_cruce": "PEREYRA LUCENA",
        "calle_nombre": "DEL LIBERTADOR AV.",
        "comuna": "Comuna 14",
        "cuit": "30-50014329-7",
        "domicilio": "AVENIDA DEL LIBERTADOR 1850 Y PEREYRA LUCENA, CAPITAL FEDERAL",
        "id": 30,
        "lat": -34.5828902774329,
        "long": -58.3999968484855,
        "nombre": "YPF",
        "razon_social": "ACA CENTRAL",
        "tipo_de_boca": "LIQUIDOS"
    },
    {
        "barrio": "Floresta",
        "calle_altura": null,
        "calle_cruce": "RIVADAVIA AV.",
        "calle_nombre": "BARADERO",
        "comuna": "Comuna 10",
        "cuit": "30-64463434-1",
        "domicilio": "AVENIDA BERNARDINO RIVADAVIA Y SAN NICOLAS, CAPITAL FEDERAL",
        "id": 29,
        "lat": -34.6327610317735,
        "long": -58.478080497941,
        "nombre": "YPF",
        "razon_social": "RIVAGAS SA",
        "tipo_de_boca": "DUAL"
    },
    {
        "barrio": "Villa Riachuelo",
        "calle_altura": null,
        "calle_cruce": "SUAREZ, JOSE LEON",
        "calle_nombre": "ROCA, CNEL. AV.",
        "comuna": "Comuna 8",
        "cuit": "30-63662269-5",
        "domicilio": "AVENIDA CNEL JOSE SEGUNDO ROCA 6797 Y J L SUAREZ, CAPITAL FEDERAL",
        "id": 35,
        "lat": -34.6962225285076,
        "long": -58.46858055512378,
        "nombre": "YPF",
        "razon_social": "RED PETROL SA",
        "tipo_de_boca": "DUAL"
    },
    {
        "barrio": "Parque Patricios",
        "calle_altura": null,
        "calle_cruce": "LUCA, ESTEBAN DE",
        "calle_nombre": "GARAY, JUAN DE AV.",
        "comuna": "Comuna 4",
        "cuit": "30-55585497-4",
        "domicilio": "AVENIDA JUAN DE GARAY 2780 Y ESTEBAN DE LUCA, CAPITAL FEDERAL",
        "id": 24,
        "lat": -34.6291513161233,
        "long": -58.403357320906,
        "nombre": "YPF",
        "razon_social": "HUACALERA SRL",
        "tipo_de_boca": "LIQUIDOS"
    },
    {
        "barrio": "Retiro",
        "calle_altura": null,
        "calle_cruce": "DE LOS INMIGRANTES AV.",
        "calle_nombre": "ANTARTIDA ARGENTINA AV.",
        "comuna": "Comuna 1",
        "cuit": "30-67877449-5",
        "domicilio": "AVENIDA ANTARTIDA ARGENTINA Y CALLE 10, CAPITAL FEDERAL",
        "id": 22,
        "lat": -34.5868705025074,
        "long": -58.3724557159926,
        "nombre": "YPF",
        "razon_social": "OPESSA RETIRO TERMINAL",
        "tipo_de_boca": "DUAL"
    },