{"help": "https://datos.ciudaddecorrientes.gov.ar/api/3/action/help_show?name=datastore_search", "success": true, "result": {"include_total": true, "resource_id": "2f8d0e54-1722-49bf-bc6d-45230293ca05", "fields": [{"type": "numeric", "id": "gid"}, {"type": "text", "id": "descripcion"}, {"type": "text", "id": "direccion"}, {"type": "text", "id": "tipo"}, {"type": "numeric", "id": "lng"}, {"type": "numeric", "id": "lat"}], "records_format": "objects", "records": [{"tipo": "CEMENTERIO", "direccion": "6 de Mayo entre Virgen de Itati y Castor de Leon", "lat": -27.492596663825417, "gid": 40, "descripcion": "Cementerio Bo Laguna Brava", "lng": -58.72143620660288}, {"tipo": "C.D.I. - CENTRO DE DESARROLLO INFANTIL", "direccion": "Sicilia y Pasaje Linares B\u00a7 Lomas del Mirador", "lat": -27.45716925704041, "gid": 1, "descripcion": "C.D.I III", "lng": -58.79039209882183}, {"tipo": "", "direccion": "Av. Carlos Guarlberto Meza", "lat": -27.51978934633631, "gid": 201, "descripcion": "Deposito de veh\u00edculos secuestrados santa catalina", "lng": -58.82464453202061}, {"tipo": "S.A.P.S - SALA DE ATENCION PRIMARIA DE LA SALUD", "direccion": "Av. Alejo Ruedas 2200", "lat": -27.543062348044174, "gid": 34, "descripcion": "S.A.P.S. Dr. Marcelino Vera - Bo Ca\u00f1ada Quiroz", "lng": -58.73626432930018}, {"tipo": "S.A.P.S - SALA DE ATENCION PRIMARIA DE LA SALUD", "direccion": "Dr. A. Lifschitz (114 Viv. Mz B - Lote 6)", "lat": -27.543994820121245, "gid": 36, "descripcion": "S.A.P.S. Bo Esperanza", "lng": -58.78542030332252}, {"tipo": "S.A.P.S - SALA DE ATENCION PRIMARIA DE LA SALUD", "direccion": "Gascon entre Las Heras y Lamadrid", "lat": -27.486177663471672, "gid": 39, "descripcion": "S.A.P.S. Bo Guemes", "lng": -58.79676433327892}, {"tipo": "S.A.P.S - SALA DE ATENCION PRIMARIA DE LA SALUD", "direccion": "Mancini y Juan Pablo II", "lat": -27.484411803214595, "gid": 38, "descripcion": "S.A.P.S. Dr. Ben\u00edtez Su\u00e1rez", "lng": -58.767660988807016}, {"tipo": "S.A.P.S - SALA DE ATENCION PRIMARIA DE LA SALUD", "direccion": "Berazategui y Guemes", "lat": -27.496301494435592, "gid": 43, "descripcion": "S.A.P.S. Dr. Korimblum", "lng": -58.810559238437705}, {"tipo": "S.A.P.S - SALA DE ATENCION PRIMARIA DE LA SALUD", "direccion": "Ramos Mejia y Tupac Amaru", "lat": -27.500474695229485, "gid": 42, "descripcion": "S.A.P.S. Dr. Santiago Lorenzo", "lng": -58.792633927195425}, {"tipo": "S.A.P.S - SALA DE ATENCION PRIMARIA DE LA SALUD", "direccion": "Zarate 3400", "lat": -27.49445433014984, "gid": 45, "descripcion": "S.A.P.S. Dr. Calmansh", "lng": -58.84695758788932}, {"tipo": "S.A.P.S - SALA DE ATENCION PRIMARIA DE LA SALUD", "direccion": "Suecia y Guillermo Ojeda", "lat": -27.504817131147426, "gid": 44, "descripcion": "S.A.P.S. Dr. A. Malvido", "lng": -58.78249787391215}, {"tipo": "S.A.P.S - SALA DE ATENCION PRIMARIA DE LA SALUD", "direccion": "Perez Rueda 1989", "lat": -27.492505500940805, "gid": 48, "descripcion": "S.A.P.S. Dr. R. Vidal", "lng": -58.76422481818042}, {"tipo": "S.A.P.S - SALA DE ATENCION PRIMARIA DE LA SALUD", "direccion": "R. N. 12 - km 10 - Yecoha", "lat": -27.42931995218784, "gid": 51, "descripcion": "S.A.P.S. Dr. Chercoff", "lng": -58.71687770710171}, {"tipo": "C.D.I. - CENTRO DE DESARROLLO INFANTIL", "direccion": "Amado Bompland y Mar del Palta Bo Itati", "lat": -27.463501402292955, "gid": 2, "descripcion": "C.D.I V", "lng": -58.80903276322269}, {"tipo": "S.A.P.S - SALA DE ATENCION PRIMARIA DE LA SALUD", "direccion": "Argerich y Juan Jos\u00e9 Lubary", "lat": -27.459602619097613, "gid": 50, "descripcion": "S.A.P.S. Dr. Semper", "lng": -58.78254445749038}, {"tipo": "S.A.P.S - SALA DE ATENCION PRIMARIA DE LA SALUD", "direccion": "Ntra Se\u00f1ora de la Asuncion (esq R. Carrillo)", "lat": -27.490696270149407, "gid": 69, "descripcion": "S.A.P.S. Bo Primera Junta", "lng": -58.81836717969313}, {"tipo": "S.A.P.S - SALA DE ATENCION PRIMARIA DE LA SALUD", "direccion": "Amado Bompland 100", "lat": -27.462762973836906, "gid": 54, "descripcion": "S.A.P.S. Bo Itati", "lng": -58.80934363124962}, {"tipo": "S.A.P.S - SALA DE ATENCION PRIMARIA DE LA SALUD", "direccion": "Cristo Obrero 310 y Navea", "lat": -27.463647880426436, "gid": 58, "descripcion": "S.A.P.S. Bo Anahi", "lng": -58.798407247952056}, {"tipo": "S.A.P.S - SALA DE ATENCION PRIMARIA DE LA SALUD", "direccion": "Ruta Nro 12 - km 8 - Perichon", "lat": -27.447538237504176, "gid": 75, "descripcion": "S.A.P.S. Dr. Mauricio Open", "lng": -58.750011420054}, {"tipo": "S.A.P.S - SALA DE ATENCION PRIMARIA DE LA SALUD", "direccion": "Av. Armenia y Yerbal", "lat": -27.46742273787315, "gid": 62, "descripcion": "S.A.P.S. Bo Pujol", "lng": -58.805916056321685}, {"tipo": "S.A.P.S - SALA DE ATENCION PRIMARIA DE LA SALUD", "direccion": "Barcelona y Pje. Linares", "lat": -27.457074453095114, "gid": 41, "descripcion": "S.A.P.S. Dr. Manuel A. Gonzalez", "lng": -58.79072281486815}, {"tipo": "S.A.P.S - SALA DE ATENCION PRIMARIA DE LA SALUD", "direccion": "Av. Laprida y Av. Ra\u00fal Alfons\u00edn", "lat": -27.476504045367676, "gid": 47, "descripcion": "S.A.P.S. Dr. Guillermo Rawson", "lng": -58.78834048757713}, {"tipo": "S.A.P.S - SALA DE ATENCION PRIMARIA DE LA SALUD", "direccion": "Ruta 5 - km 4", "lat": -27.490779539597288, "gid": 49, "descripcion": "S.A.P.S. XVII - B\u00ba Parque Cadenas Norte", "lng": -58.75116195926735}, {"tipo": "S.A.P.S - SALA DE ATENCION PRIMARIA DE LA SALUD", "direccion": "Pirovano 1988", "lat": -27.48412575205607, "gid": 71, "descripcion": "S.A.P.S. Bo Villa Chiquita", "lng": -58.80606492271548}, {"tipo": "S.A.P.S - SALA DE ATENCION PRIMARIA DE LA SALUD", "direccion": "Spano entre Velez Sarsfield y Sgto. Del Estero", "lat": -27.458171545687126, "gid": 76, "descripcion": "S.A.P.S. Bo Cichero", "lng": -58.81800189096301}, {"tipo": "S.A.P.S - SALA DE ATENCION PRIMARIA DE LA SALUD", "direccion": "Roldan Belizario E/ H. Quiroga y M. Mujica Lainez", "lat": -27.507782067078228, "gid": 88, "descripcion": "S.A.P.S. Dr. Alberto Lifchitzs", "lng": -58.805359190751744}, {"tipo": "S.A.P.S - SALA DE ATENCION PRIMARIA DE LA SALUD", "direccion": "Montes de Oca y Gutnisky", "lat": -27.488818494166626, "gid": 91, "descripcion": "S.A.P.S. Dr. Blugerman", "lng": -58.852215742332426}, {"tipo": "C.D.I. - CENTRO DE DESARROLLO INFANTIL", "direccion": "Pedernera 721 Bo Popular", "lat": -27.467935595135813, "gid": 4, "descripcion": "C.D.I I", "lng": -58.792723519382584}, {"tipo": "C.D.I. - CENTRO DE DESARROLLO INFANTIL", "direccion": "Mtro. S. Fernandez y Mocito Acu\u00f1a Laguna Brava", "lat": -27.492072688087838, "gid": 5, "descripcion": "C.D.I XV", "lng": -58.71827894325659}, {"tipo": "C.D.I. - CENTRO DE DESARROLLO INFANTIL", "direccion": "Bo Esperanza frente a la Escuela primaria", "lat": -27.54681427634586, "gid": 6, "descripcion": "C.D.I VIII", "lng": -58.78774554278122}, {"tipo": "CEMENTERIO", "direccion": "Av. Alberdi y Av. Gutniski", "lat": -27.48809074271776, "gid": 30, "descripcion": "Cementerio San Juan Bautista", "lng": -58.8524862768151}, {"tipo": "OFICNA", "direccion": "Carlos Pellegruni 542", "lat": -27.464941584969576, "gid": 24, "descripcion": "Centro Cultural Adolfo Mors - Dccion de Cultura", "lng": -58.843717126895385}, {"tipo": "OFICNA", "direccion": "Av. Sarmiento 2115", "lat": -27.48283660013862, "gid": 26, "descripcion": "Centro Cultural Municipal - Escuela de Arte", "lng": -58.83063885224468}, {"tipo": "S.A.P.S - SALA DE ATENCION PRIMARIA DE LA SALUD", "direccion": "Av. Alta Gracia esq Los Atacamas", "lat": -27.50787988860693, "gid": 32, "descripcion": "S.A.P.S. Dr. Manuel Cassuso", "lng": -58.81318716103605}, {"tipo": "C.D.I. - CENTRO DE DESARROLLO INFANTIL", "direccion": "Roque Perez y Los Alpes Bo San Marcos", "lat": -27.4887050747316, "gid": 9, "descripcion": "C.D.I IV", "lng": -58.82225093587405}, {"tipo": "C.D.I. - CENTRO DE DESARROLLO INFANTIL", "direccion": "J. R. Vidal  y Rio Paran\u00a0 Bo Santa Maria", "lat": -27.50109838766844, "gid": 12, "descripcion": "C.D.I VII", "lng": -58.841546890141515}, {"tipo": "C.D.I. - CENTRO DE DESARROLLO INFANTIL", "direccion": "Lamadrid 450 Bo San Benito", "lat": -27.480603770916616, "gid": 15, "descripcion": "C.D.I IX", "lng": -58.8471961772308}, {"tipo": "OFICINA", "direccion": "25 de Mayo 1132", "lat": -27.46437587563937, "gid": 19, "descripcion": "Palacio Municipal", "lng": -58.836301705833094}, {"tipo": "OFICINA", "direccion": "Pje. Villanueva al 1400", "lat": -27.46415391783038, "gid": 22, "descripcion": "Subs. de Descentralizacion y participacion Ciudadana", "lng": -58.831964788730424}, {"tipo": "S.A.P.S - SALA DE ATENCION PRIMARIA DE LA SALUD", "direccion": "Av. Alberdi y Gdor. Piragine Niveyro", "lat": -27.485723197567086, "gid": 31, "descripcion": "S.A.P.S. 33 Gdor. Elias Galvan", "lng": -58.846857950934165}, {"tipo": "C.D.I. - CENTRO DE DESARROLLO INFANTIL", "direccion": "Cristo Obrero 360 Bo Anahi", "lat": -27.463875936401895, "gid": 3, "descripcion": "C.D.I XIII", "lng": -58.79794520173067}, {"tipo": "C.D.I. - CENTRO DE DESARROLLO INFANTIL", "direccion": "Calle 4 (entre calles 15 y 9) Bo Dr. Monta\u00f1a", "lat": -27.527298048658547, "gid": 7, "descripcion": "C.D.I XIV", "lng": -58.78914782638811}, {"tipo": "C.D.I. - CENTRO DE DESARROLLO INFANTIL", "direccion": "Madariaga 2750 Bo Primera Junta", "lat": -27.48495483928499, "gid": 8, "descripcion": "C.D.I II", "lng": -58.81895689626707}, {"tipo": "C.D.I. - CENTRO DE DESARROLLO INFANTIL", "direccion": "Corintos 3700 Bo Serantes", "lat": -27.500794129032737, "gid": 10, "descripcion": "C.D.I X", "lng": -58.80901289790732}, {"tipo": "C.D.I. - CENTRO DE DESARROLLO INFANTIL", "direccion": "Av. Alta Gracia esq Los Atacamas", "lat": -27.5078495425775, "gid": 11, "descripcion": "C.D.I XII", "lng": -58.81306168800158}, {"tipo": "C.D.I. - CENTRO DE DESARROLLO INFANTIL", "direccion": "Zarate 3400 Bo Quilmes", "lat": -27.494214439055526, "gid": 13, "descripcion": "C.D.I VI", "lng": -58.84709974931984}, {"tipo": "C.D.I. - CENTRO DE DESARROLLO INFANTIL", "direccion": "Hernan Cort\u201az y Gutnisky Bo Virgen de los Dolo", "lat": -27.48881085654056, "gid": 14, "descripcion": "C.D.I XI", "lng": -58.85205366236123}, {"tipo": "OFICINA", "direccion": "Av. Artigas entre Estado de Israel y Gdor. Gomez", "lat": -27.47216013567474, "gid": 16, "descripcion": "Direccion General de Transito", "lng": -58.81858317358027}, {"tipo": "OBRADOR", "direccion": "Florencia-Sanche de Bustamante-Godoy Cruz-Las Her", "lat": -27.48780662822483, "gid": 17, "descripcion": "Obrador I", "lng": -58.78983197195111}, {"tipo": "OFICINA", "direccion": "Belgrano 2115", "lat": -27.473191285418505, "gid": 18, "descripcion": "Secretaria de Infraestructura", "lng": -58.82446915239509}, {"tipo": "OBRADOR", "direccion": "San Francisco de Asis al 4600", "lat": -27.493709903550638, "gid": 21, "descripcion": "Obrador II", "lng": -58.79817468879778}, {"tipo": "OFICINA", "direccion": "Av. Costanera Gral. San Martin", "lat": -27.465073584221987, "gid": 23, "descripcion": "Centro Cultural Punta Tacuara - Subsec. Cultura, Turismo y", "lng": -58.84809760827641}, {"tipo": "OFICINA", "direccion": "Plaza de los Constituyentes", "lat": -27.49225835497595, "gid": 25, "descripcion": "Direccion Gral. de Deportes", "lng": -58.835280599784795}, {"tipo": "OFICINA", "direccion": "Belgrano 2145", "lat": -27.473241289564267, "gid": 27, "descripcion": "Subsecretaria de Transporte", "lng": -58.8239693077794}, {"tipo": "TRIBUNAL DE FALTAS", "direccion": "Pje. Olazabal entre Estado de Israel y Gdor Gomez", "lat": -27.47218930349184, "gid": 28, "descripcion": "Tribunales de Faltas", "lng": -58.81849669091226}, {"tipo": "CENTRO LIQUIDACION-COBRO", "direccion": "BRASIL 1269", "lat": -27.472851629754683, "gid": 29, "descripcion": "LA CAJA MUNICIPAL DE PRESTAMOS", "lng": -58.82436970911042}, {"tipo": "DELEGACIONES", "direccion": "Av. IV Centenario No 2613", "lat": -27.488034648908393, "gid": 33, "descripcion": "Delegacion Municipal Pio X", "lng": -58.837934860675404}, {"tipo": "VIVERO", "direccion": "Isaco Abitbol, esquina Dr, Mario Payes", "lat": -27.544798237457197, "gid": 35, "descripcion": "Vivero Municipal", "lng": -58.78889161170981}, {"tipo": "OFICINA", "direccion": "Bolivar e Cordoba y Catamarca", "lat": -27.471352255953278, "gid": 52, "descripcion": "Secretaria de Salud Accion Social y Medio Ambiente", "lng": -58.83384662699522}, {"tipo": "OFICINA", "direccion": "Brasil 1251", "lat": -27.47267207538362, "gid": 53, "descripcion": "Subsecretaria de Medio Ambiente", "lng": -58.824050426202774}, {"tipo": "S.A.P.S - SALA DE ATENCION PRIMARIA DE LA SALUD", "direccion": "Av. Costanera gral san Martin y Salta", "lat": -27.461356301564127, "gid": 56, "descripcion": "S.A.P.S. Centro de Vacunacion", "lng": -58.8384384354732}, {"tipo": "DELEGACIONES", "direccion": "Crespo e/ Cosqu\u00edn y Rafaela (Centro Comercial N 8)", "lat": -27.494390114062366, "gid": 57, "descripcion": "Delegacion Municipal Nicolini", "lng": -58.82951835345301}, {"tipo": "DELEGACIONES", "direccion": "Cuba al 5900 entre Guillermo Ojeda y Cardozo", "lat": -27.506330740053382, "gid": 60, "descripcion": "Delegacion Municipal Pirayui", "lng": -58.782665438718915}, {"tipo": "DELEGACIONES", "direccion": "Florencio Varela  y calle 516", "lat": -27.520128502744626, "gid": 61, "descripcion": "Delegacion Municipal Dr. Monta\u00f1a", "lng": -58.79385261728079}, {"tipo": "MERCADOS", "direccion": "Lavalle al 1200", "lat": -27.47669579826011, "gid": 63, "descripcion": "Mercado Central de Productos Frescos", "lng": -58.836265966062996}, {"tipo": "DELEGACIONES", "direccion": "Las Heras 4450  entre medrano y Darragueira", "lat": -27.485732857173236, "gid": 64, "descripcion": "Delegacion Municipal Guemes (centro comercial)", "lng": -58.79807860093627}, {"tipo": "DELEGACIONES", "direccion": "Las Margaritas y Jos\u00e9 Negro al 900 (centro comercial)", "lat": -27.448604974987443, "gid": 65, "descripcion": "Delegacion Municipal Molina Punta (centro comercial)", "lng": -58.78177558122196}, {"tipo": "DELEGACIONES", "direccion": "Belisario Roldan e/ Horacio Quiroga y Mujica Lainez", "lat": -27.508040812234867, "gid": 66, "descripcion": "Delegacion Municipal San Antonio", "lng": -58.80535512603758}, {"tipo": "DELEGACIONES", "direccion": "Lavalle 1200 e/ Mendoza y C\u00f3rdoba Local 20 y 21", "lat": -27.47703213750546, "gid": 67, "descripcion": "Delegacion Municipal San Martin", "lng": -58.835788346484705}, {"tipo": "DELEGACIONES", "direccion": "Ministro fernadez y R.P. 46", "lat": -27.49205625591709, "gid": 68, "descripcion": "Delegacion Municipal Laguna Brava", "lng": -58.71846128419781}, {"tipo": "DELEGACIONES", "direccion": "Av Domingo Peron 5600", "lat": -27.49042423625996, "gid": 55, "descripcion": "Delegacion Municipal 17 de Agosto", "lng": -58.78352430319628}, {"tipo": "DELEGACIONES", "direccion": "Cristo Obrero 360 (Fte Parroquia)", "lat": -27.464317852106426, "gid": 59, "descripcion": "Delegacion Municipal  Anahi", "lng": -58.798353732155796}, {"tipo": "S.A.P.S - SALA DE ATENCION PRIMARIA DE LA SALUD", "direccion": "Av. 3 de Abril y Chaco", "lat": -27.473924782153148, "gid": 37, "descripcion": "S.A.P.S. Dr. Sussini", "lng": -58.847620092040756}, {"tipo": "S.A.P.S - SALA DE ATENCION PRIMARIA DE LA SALUD", "direccion": "Mocoreta S/N", "lat": -27.5152024029, "gid": 46, "descripcion": "S.A.P.S. Bo Rio Parana", "lng": -58.82874467495916}, {"tipo": "DELEGACIONES", "direccion": "Diaz de Vivar 2401 entre G. de la Vega y Rio Iguazu", "lat": -27.483506140910347, "gid": 72, "descripcion": "Delegacion Galvan (centro comercial)", "lng": -58.85292282559337}, {"tipo": "DELEGACIONES", "direccion": "B\u00b0 Parque Cadenas Mz. 19  Casa 19", "lat": -27.492500481492996, "gid": 74, "descripcion": "Delegacion Municipal Bo Santa Rita", "lng": -58.762498002104}, {"tipo": "DELEGACIONES", "direccion": "Tupac Amaru y Ramos Mejia", "lat": -27.500717780070147, "gid": 77, "descripcion": "Delegacion Municipal Bo Nuevo", "lng": -58.79271801491168}, {"tipo": "DELEGACIONES", "direccion": "Valentin gomez No 270", "lat": -27.463759974219702, "gid": 78, "descripcion": "Delegacion Municipal Bo Industrial", "lng": -58.789800431955044}, {"tipo": "DELEGACIONES", "direccion": "Av. Raul Ricardo Alfonsin 3801", "lat": -27.473009892255767, "gid": 80, "descripcion": "Delegacion Municipal Madariaga", "lng": -58.80440058544923}, {"tipo": "OFICINA", "direccion": "Catamarca 771", "lat": -27.466420994634863, "gid": 81, "descripcion": "Desentralizaci\u00f3n  y Participacion Ciudadana", "lng": -58.83273616330208}, {"tipo": "OFICINA", "direccion": "Florencia-Sanche de Bustamante-Godoy Cruz-Las Her", "lat": -27.4872488682261, "gid": 83, "descripcion": "Direccion General de Parques y Paseos", "lng": -58.78973728281997}, {"tipo": "OFICINA", "direccion": "Av. Artigas entre Estado de Israel y Gdor. Gomez", "lat": -27.472525153581472, "gid": 84, "descripcion": "Subsecretaria de Salud", "lng": -58.81865871508947}, {"tipo": "Industrias-Empresas Municipales", "direccion": "Av maipu k10", "lat": -27.54861965704779, "gid": 93, "descripcion": "Matadero Frigorifico Municipal", "lng": -58.79137581349293}, {"tipo": "DELEGACIONES", "direccion": "Ruta 12KM. 1036 B San Francisco", "lat": -27.4513889460302, "gid": 94, "descripcion": "Delegacion Bejarano  (base)", "lng": -58.75304563166323}, {"tipo": "DELEGACIONES", "direccion": "Saladas entre Punta San Sebastian y Punta \u00d1aro", "lat": -27.441483593738692, "gid": 95, "descripcion": "Delegacion Punta Taitalo (base)", "lng": -58.78317525436665}, {"tipo": "DELEGACIONES", "direccion": "Angel Nari\u00f1o 360 e/ Los Cocos y Palmar Grande", "lat": -27.46242045120151, "gid": 96, "descripcion": "Delegacion Victor Colas", "lng": -58.78610057284138}, {"tipo": "DELEGACIONES", "direccion": "Caracas, Domingo Lastra y Av Sinforoso Aguirre", "lat": -27.47563015166659, "gid": 97, "descripcion": "Delegacion San Geronimo", "lng": -58.78910170423348}, {"tipo": "DELEGACIONES", "direccion": "Av. Pte Dr Raul Alfonsin 3800", "lat": -27.471258310360202, "gid": 98, "descripcion": "Sub-Delegacion Villa Celia", "lng": -58.803734320130744}, {"tipo": "DELEGACIONES", "direccion": "Chacabuco 201", "lat": -27.461632564378867, "gid": 99, "descripcion": "SUM Placido Martinez (base)", "lng": -58.80990099886666}, {"tipo": "DELEGACIONES", "direccion": "Guido Spano 2455, Velez Sarfield y Sgo del Estero", "lat": -27.458315107856464, "gid": 100, "descripcion": "Delegacion Ba\u00f1ado Norte (base)", "lng": -58.817872807311886}, {"tipo": "DELEGACIONES", "direccion": "Elias Abad esq Madariaga", "lat": -27.48122454683666, "gid": 102, "descripcion": "Delegacion San Benito (base)", "lng": -58.849257455511754}, {"tipo": "DELEGACIONES", "direccion": "Dr Ramon Carrillo e/ Pasaje Australia y Cazadores Correntinos", "lat": -27.485592111023607, "gid": 103, "descripcion": "SUM Union (base)", "lng": -58.82226185673912}, {"tipo": "DELEGACIONES", "direccion": "Pje Las Flores 3400", "lat": -27.49552879331668, "gid": 104, "descripcion": "Juan XXIII (base)", "lng": -58.84018016367817}, {"tipo": "DELEGACIONES", "direccion": "Pedro Centeno 1201", "lat": -27.496788646931225, "gid": 105, "descripcion": "Delegacion Santa Maria (base)", "lng": -58.837559495055224}, {"tipo": "CENTRO DE MONITOREO", "direccion": "Pje Agustin Gonzalez entre San Juan y Rioja", "lat": -27.4671975761109, "gid": 92, "descripcion": "COM", "lng": -58.837176426995974}, {"tipo": "S.A.P.S - SALA DE ATENCION PRIMARIA DE LA SALUD", "direccion": "Pje. Paris al 4000", "lat": -27.47794078189867, "gid": 70, "descripcion": "S.A.P.S. Villa Garcia", "lng": -58.80241848701059}, {"tipo": "S.A.P.S - SALA DE ATENCION PRIMARIA DE LA SALUD", "direccion": "Roque Perez S/N", "lat": -27.488868823055803, "gid": 73, "descripcion": "S.A.P.S. Bo. San Marcos", "lng": -58.82272652570896}, {"tipo": "S.A.P.S - SALA DE ATENCION PRIMARIA DE LA SALUD", "direccion": "Zacarias Sanchez 300", "lat": -27.463423997570537, "gid": 79, "descripcion": "S.A.P.S. Bo Quinta Ferre", "lng": -58.80655189762285}, {"tipo": "S.A.P.S - SALA DE ATENCION PRIMARIA DE LA SALUD", "direccion": "Bo Santa Margarita (Puente Pexoa)", "lat": -27.53631734119801, "gid": 85, "descripcion": "S.A.P.S. Santa Margarita", "lng": -58.76095063337062}, {"tipo": "DELEGACIONES", "direccion": "25 de Mayo 1278", "lat": -27.464426408730006, "gid": 101, "descripcion": "Palacio Municipal", "lng": -58.835832195876826}, {"tipo": "S.A.P.S - SALA DE ATENCION PRIMARIA DE LA SALUD", "direccion": "Dr. Leloir entre Crespo y 2 de Abril", "lat": -27.503526256547428, "gid": 82, "descripcion": "S.A.P.S. Dra. Rossi Candia", "lng": -58.82997887583055}, {"tipo": "S.A.P.S - SALA DE ATENCION PRIMARIA DE LA SALUD", "direccion": "Zona Rural", "lat": -27.516544087604757, "gid": 86, "descripcion": "S.A.P.S. Paso Martinez", "lng": -58.65782542637995}, {"tipo": "S.A.P.S - SALA DE ATENCION PRIMARIA DE LA SALUD", "direccion": "AV. J. R. Vidal y Argentina", "lat": -27.502504269554834, "gid": 89, "descripcion": "S.A.P.S. Santa Marta", "lng": -58.84185386289468}, {"tipo": "S.A.P.S - SALA DE ATENCION PRIMARIA DE LA SALUD", "direccion": "Hernan Felix Gomez y Ricardo Juan Guillermo Harvey", "lat": -27.490342457727834, "gid": 90, "descripcion": "S.A.P.S. XVIII - Bo Sapucay", "lng": -58.73901113733029}, {"tipo": "DELEGACIONES", "direccion": "Dr. Federico Leloir e/ calle 459 y Cura Brochero", "lat": -27.50354546430272, "gid": 106, "descripcion": "INDEPENDENCIA (base)", "lng": -58.829757978053706}, {"tipo": "DELEGACIONES", "direccion": "Pasaje 297 entre Braile y Cabral", "lat": -27.479947936828832, "gid": 108, "descripcion": "Universitario (base)", "lng": -58.7970393200121}, {"tipo": "DELEGACIONES", "direccion": "Sussini y Pitagora (Fte. Esc. 345)", "lat": -27.49267602274964, "gid": 109, "descripcion": "Laguna Seca (SUM)", "lng": -58.801282038225175}, {"tipo": "DELEGACIONES", "direccion": "Berazategui ent W. Dominguez y Pje S/N", "lat": -27.496316561381825, "gid": 110, "descripcion": "Irupe (base)", "lng": -58.81046915993071}, {"tipo": "DELEGACIONES", "direccion": "Cangallo 5400 e/ Ramos Mej\u00eda y Sanchez de Bustamante", "lat": -27.50904200403006, "gid": 112, "descripcion": "Quintana (base)", "lng": -58.79172273559926}, {"tipo": "DELEGACIONES", "direccion": "Prof. Jose Irigiyen, Prof. Gustavo Revidatti", "lat": -27.547508726937927, "gid": 115, "descripcion": "Esperanza (base)", "lng": -58.786420713253825}, {"tipo": "DELEGACIONES", "direccion": "Cesar Alvarez y Pedro Morresi", "lat": -27.492896758273876, "gid": 116, "descripcion": "Ponce Nestor Kirchner", "lng": -58.7715797238892}, {"tipo": "DELEGACIONES", "direccion": "Senador Mancini e/ Juan Pabo II y Pio X", "lat": -27.484540731844522, "gid": 117, "descripcion": "San Ignacio (base)", "lng": -58.76753149009553}, {"tipo": "CONTRALOR AMBIENTAL", "direccion": "R. N. 12 km 1.024", "lat": -27.522472217186888, "gid": 123, "descripcion": "Centro de Inspeccion Bromatologico", "lng": -58.76466666329072}, {"tipo": "HCD", "direccion": "San Juan 531", "lat": -27.46343124111989, "gid": 124, "descripcion": "Extension Honorable Consejo Deliberante", "lng": -58.83624902848396}, {"tipo": "OFICINA", "direccion": "AV. Pres. Dr. Raul R. Alfonsin 3702", "lat": -27.473432294521146, "gid": 125, "descripcion": "Centro Emisor de Licencias I", "lng": -58.804914090159144}, {"tipo": "OFICINA", "direccion": "Av. Maipu 2600", "lat": -27.49908990372636, "gid": 126, "descripcion": "Centro Emisor de Licencias II", "lng": -58.8148556616526}, {"tipo": "OFICINA", "direccion": "Brasil 1279", "lat": -27.47309005950958, "gid": 195, "descripcion": "Secretaria de Desarrollo Urbano", "lng": -58.824172244082725}, {"tipo": "OFICINA", "direccion": "9 de Julio", "lat": -27.466048626424325, "gid": 196, "descripcion": "Direccion General de Discapacidad e Inclusion Social", "lng": -58.84117327284834}, {"tipo": "Edificio Publico", "direccion": "Parque Mitre", "lat": -27.45974133908787, "gid": 200, "descripcion": "Biblioteca El Palomar", "lng": -58.828107913762395}, {"tipo": "CENTRO DE INTEGRACION COMUNITARIA", "direccion": "Cristo Obrero entre Esteban Bajac y Angel Navea", "lat": -27.46406537023322, "gid": 119, "descripcion": "C.I.C. Bo Anah\u00ed \"General Andresito\"", "lng": -58.798385378076794}, {"tipo": "CENTRO DE INTEGRACION COMUNITARIA", "direccion": "Roldan Belizario E/ H. Quiroga y M. Mujica Lainez", "lat": -27.507939822829663, "gid": 122, "descripcion": "C.I.C \"Papa Francisco\" - Bo. San Antonio", "lng": -58.80530416898912}, {"tipo": "CENTRO DE INTEGRACION COMUNITARIA", "direccion": "Senador Mancini , Juan Pabo II y Pio X", "lat": -27.484315832909836, "gid": 120, "descripcion": "CIC San Ignacio", "lng": -58.767464612015594}, {"tipo": "OBRADOR", "direccion": "Calle 271 casi Tafi del Valle", "lat": -27.512087466232565, "gid": 107, "descripcion": "Obrador III F\u00e1brica. Premoldeado.", "lng": -58.830191730499806}, {"tipo": "DELEGACIONES", "direccion": "Ferrau Jose Ramon y Toledo Lorenzo Gabriel", "lat": -27.51747142203191, "gid": 114, "descripcion": "SUM C. F. K. (base)", "lng": -58.777689537927564}, {"tipo": "CENTRO DE INTEGRACION COMUNITARIA", "direccion": "Tupac Amaru y Turin", "lat": -27.5012479649864, "gid": 121, "descripcion": "C.I.C. Bo Ciudades Correntinas", "lng": -58.78550115824975}, {"tipo": "DELEGACIONES", "direccion": "Turin y Tupac Amaru (CIC)", "lat": -27.501051709267646, "gid": 113, "descripcion": "Ciudades Correntinas", "lng": -58.785465725151646}, {"tipo": "S.A.P.S - SALA DE ATENCION PRIMARIA DE LA SALUD", "direccion": "Abelardo Hector Dimotta y Ramon Sixto Rios", "lat": -27.52604374125816, "gid": 127, "descripcion": "S.A.P.S. Santa Catalina", "lng": -58.804342122310494}, {"tipo": "DELEGACIONES", "direccion": "Finlandia 3700", "lat": -27.502497052443328, "gid": 111, "descripcion": "Serantes (base)", "lng": -58.803158845840684}], "limit": 128, "_links": {"start": "/api/3/action/datastore_search?limit=128&resource_id=2f8d0e54-1722-49bf-bc6d-45230293ca05", "next": "/api/3/action/datastore_search?offset=128&limit=128&resource_id=2f8d0e54-1722-49bf-bc6d-45230293ca05"}, "total": 128}}